stop_id,stop_code,stop_name,stop_lat,stop_lon,zone_id
420,"KRES02","Kresowa",52.4686397100,16.9474248100,A
1083,"GORC30","Górczyn PKM",52.3818397800,16.8814533600,A
2186,"ZSNZ02","Żerniki/Skrzyżowanie",52.3268396556,17.0426260111,B
742,"OSTR02","Ostroroga",52.4003292800,16.8818442500,A
355,"SUCH02","Sucholeska",52.4623384300,16.8688846200,A
2678,"SCOGR02","Szczodrzykowo/Ogrodowa",52.2834214700,17.1069763900,C
3196,"KORN78","Kórnicka",52.3995855285,16.9516899055,A
487,"SERB01","Serbska",52.4324932200,16.9466084200,A
2245,"TRTOD01","Trzek/Topolowa",52.3474908081,17.1532634638,B
494,"POLA03","Połabska",52.4361636300,16.9308478800,A
2040,"TPKAI02","Tarnowo Pdg/Karolewo I",52.4691534857,16.6846222807,C
1652,"TEMA01","Termy Maltańskie",52.4055228300,16.9759399300,A
4136,"MACZ01","Maczka",52.4237505141,16.9134678163,A
2418,"SDRYN01","Swarzędz/Rynek",52.4105870000,17.0756670000,B
41,"KMIE71","Kmieca",52.4263321700,16.9384827300,A
2571,"MGMOD01","M. Goślina/Modrzewiowa",52.5664568900,17.0025375100,C
601,"LUPO02","Łupowska",52.4352823800,16.8301995000,A
2449,"PKDWO01","Paczkowo/Szkoła (Dworska)",52.4022200000,17.1589250000,C
1532,"POKR02","Pokrzywno",52.3507785100,16.9820619800,A
1757,"GLSTW04","Głuchowo/Stawna",52.3465437186,16.7688141799,C
2047,"TPCEN02","Tarnowo Pdg/Centrum",52.4642589300,16.6639011600,C
1220,"SWIA01","Światopełka",52.4088075100,17.0247293100,A
2244,"TRTOD02","Trzek/Topolowa",52.3471931536,17.1537947361,B
1856,"KICZE02","Kiekrz/Czereśniowa",52.4987834900,16.7504222400,B
1956,"PMWIA02","Przeźmierowo/Wiadukt",52.4354184600,16.7863166501,B
1469,"PILS01","Piłsudskiego",52.3917749100,16.9530540900,A
29,"SZYM42","Szymanowskiego",52.4603710300,16.9169382500,A
2285,"MELIS02","Mielno/Lisia",52.4894689300,17.0718976700,C
1169,"URWI01","Urwista",52.4230537700,16.9831660800,A
1635,"REMO02","Rezerwat Morasko",52.4879355700,16.8974506500,A
2403,"GTDOZ02","Gortatowo/Dożynkowa",52.4244570000,17.1019520000,B
382,"SOB01","Os. Sobieskiego",52.4636932100,16.9164340900,A
768,"SZAM01","Szamotulska",52.4046890900,16.8832369900,A
3087,"LIDPS01","Lisówki/DPS",52.3324740000,16.6469710000,C
2937,"XRZLO01","Kruszewnia/Złotopolska",52.3761980000,17.1021880000,C
146,"LOMZ42","Łomżyńska",52.4096310300,16.9851960400,A
2361,"SDKOS02","Swarzędz/Os. Kościuszkowców",52.4210380000,17.0814040000,B
3096,"LUZSK03","Luboń/Zespół Szkół",52.3482935634,16.8972492541,B
2522,"SDFIE01","Swarzędz/Pogodna/Średzka",52.4005350000,17.0842660000,B
1821,"PWPAW02","Pawłowice/Pawłowicka",52.4878779600,16.7987427900,B
2627,"KDBOS02","Kórnik/Bnin Osiedle",52.2228421700,17.0869526200,C
3869,"WTWIT01","Witkowice/Gorgoszewo Skrzyżowanie ",52.4818740000,16.5255420000,C
620,"OGDY01","Ogrody",52.4169067600,16.8818094600,A
1614,"CZ I02","Os. Czecha I",52.3824873200,16.9819436900,A
33,"ARPO42","Armii Poznań",52.4213487500,16.9235154600,A
485,"SERB04","Serbska",52.4313437400,16.9475532400,A
2333,"ZNNSW01","Zimin/Nowy Świat Centrum",52.2989001200,17.1753768100,B
743,"OSTR01","Ostroroga",52.4007473900,16.8824578700,A
1885,"RKMIC02","Rokietnica/Mickiewicza",52.5159209100,16.7394621600,B
964,"KOLUB02","Komorniki/Lubońska",52.3391737668,16.8347214580,B
1607,"NIEZ02","Niezłomnych",52.4030230600,16.9208396200,A
99,"ARCI42","Arciszewskiego",52.3926985000,16.8869293500,A
1613,"DZIA02","Dziadoszańska",52.3776499100,16.9710129600,A
2515,"RABUK01","Rabowice/Bukowa",52.3906840000,17.1190960000,C
2754,"GDSPE02","Gądki/Spedycyjna",52.3103302600,17.0524906900,B
282,"ZLLAG02","Złotniki/Łagiewnicka",52.4914781500,16.8466062100,B
1948,"PMFOL01","Przeźmierowo/Folwarczna",52.4268080000,16.7919810000,B
2531,"RASWI01","Rabowice/Świerkowa",52.3771890000,17.1088480000,C
2974,"BRKUR02","Borówiec/Kurkowa",52.2811997299,17.0208586051,B
636,"ZGOR01","Zgorzelecka",52.4120717800,16.8580344800,A
1629,"GLHE01","Głogowska/Hetmańska",52.3905333300,16.8934472500,A
974,"LUKLL02","Luboń/Kołłątaja",52.3424935544,16.8619491625,B
329,"SLPRO02","Suchy Las/Promienista",52.4781626300,16.8604308500,B
3622,"KALI01","Kalinowa",52.3690518989,16.9036540366,A
1487,"LUBU02","Lubuszańska",52.3801304409,16.9743280077,A
1208,"CZEA01","Czerwonacka",52.4352924338,16.9803048209,A
2004,"LWOTO02","Lusowo/Otowska",52.4259554000,16.7150521600,C
1072,"TACZ02","Taczanowskiego",52.3915854300,16.8677131200,A
2502,"WZMEH01","Wierzenica/Mechowo",52.4407420000,17.0559040000,B
2467,"PKALT02","Paczkowo/Altanowa",52.4064900000,17.1656330000,C
1508,"SSZP01","Szwajcarska Szpital",52.3898759600,16.9925383700,A
3980,"SPKA04","Spławska",52.3571048734,17.0003898646,A
3844,"MERA01","Meissnera",52.4188519375,16.8654171899,A
729,"ROSK01","Rondo Skubiszewskiego",52.3899356513,16.8529470488,A
1026,"SMIE01","Śmiełowska",52.3738876800,16.8769520100,A
1701,"ROSK41","Rondo Skubiszewskiego",52.3901366400,16.8543457700,A
1478,"LI01","Os. Lecha I",52.3878126200,16.9678225400,A
1554,"SPKA02","Spławska",52.3567125100,17.0002986500,A
433,"RDWA01","Rdestowa",52.4899311000,16.9417111700,A
734,"STMI01","Stadion Miejski",52.3961310000,16.8624166100,A
3748,"DHWIA01","Dachowa/Wiatrakowa",52.3023393500,17.0880401100,B
1305,"KALOT02","Kamionki/Lotnicza",52.2849603500,17.0001225400,B
516,"RZEP02","Rzepeckiej",52.4549770000,16.8826823700,A
2852,"GALC02","Gałczyńskiego",52.4065310526,16.8507924445,A
703,"ZKSWI01","Zakrzewo/Świerkowa",52.3984719500,16.7163313800,C
2665,"KDINS02","Kórnik/Parkowa Instytut",52.2450821500,17.0961829700,C
3104,"MGPOL01","M. Goślina/Polna",52.5785668184,17.0180399105,C
339,"LEWI02","Łęgowskiego Wiadukt",52.4631964400,16.8893035600,A
1794,"RSROS01","Rosnowo/",52.3252390600,16.7822946900,C
2983,"ZLOGP02","Złotniki/Os. Grzybowe PKM",52.4842624248,16.8448008738,B
362,"HULE01","Hulewiczów",52.4565911000,16.8979252100,A
2315,"KEPAL01","Krerowo/Pałac",52.2959357000,17.1947378400,B
799,"URWO01","Urząd Wojewódzki",52.4111032500,16.9190324100,A
3206,"ZROWO01","Zborowo/",52.3722760000,16.6315260000,C
1571,"TARC02","Tarczowa",52.3781275800,16.8957220000,A
1985,"BTBRZ02","Batorowo/Brzask",52.4227121100,16.7321550700,C
429,"UMTA01","Umultowo",52.4819694900,16.9436187200,A
777,"MARS02","Marszałkowska",52.4007296784,16.8641480394,A
2887,"POOSI02","Poklatki/Osiedle",52.3294866800,17.2034851800,B
325,"SLPRZ02","Suchy Las/Os. Przylesie",52.4733187600,16.8979097800,B
2086,"CKKOL01","Ceradz Kościelny/Kościół",52.4375433700,16.5924837000,C
3829,"RKPKM03","Rokietnica/Węzeł Przesiadkowy",52.5111400000,16.7547300000,B
3276,"RBZER01","Robakowo/Żernicka Magazyny",52.3144883500,17.0716458500,B
1818,"WISE04","Wilczak/Serbska",52.4307468300,16.9515943800,A
3339,"WYWIE01","Wysogotowo/Wierzbowa",52.4144321700,16.7763959900,B
2117,"NKRZ01","Nad Krzesinką",52.3361875492,17.0085507972,A
4113,"GRMEC01","Gruszczyn/Mechowska",52.4296028792,17.0706211088,B
2314,"KEPAL02","Krerowo/Pałac",52.2954916400,17.1947686100,B
1802,"SZDWO02","Szreniawa/Dworcowa",52.3178147185,16.7930608565,C
1540,"KRSZ01","Krzesiny Szkoła",52.3411399600,16.9924082900,A
1113,"SLKA06","Słowiańska",52.4270017600,16.9212802300,A
1203,"KZOSL02","Koziegłowy/Os. Leśne",52.4533864300,16.9920604200,B
3237,"KNCME01","Konarzewo/Cmentarz",52.3332330000,16.7039650000,C
119,"GRUD71","27 Grudnia",52.4080400000,16.9243200000,A
1936,"PMBRZ01","Przeźmierowo/Brzozowa",52.4197678200,16.7747521900,B
519,"TULO01","Tułodzieckiej",52.4524763700,16.8871356900,A
1596,"PAMI71","Pamiątkowa",52.3871000200,16.9161885900,A
2555,"GAPET01","Garby Wielkie/Pętla",52.3722850000,17.0740970000,C
18,"SWLE41","Św. Leonarda",52.4328200000,16.9113300000,A
3746,"BJPRZ02","Błażejewo/Os. Przylesie",52.2187621800,17.0764783500,C
2136,"KXGRA02","Koninko/Granatowa",52.3069560000,17.0198840000,B
2281,"KYBRZ02","Kliny/Brzozowa",52.4898439700,17.0600334800,C
30,"SZYM41","Szymanowskiego",52.4603958500,16.9171552600,A
534,"LUDO01","Lutycka/Dojazd",52.4408641700,16.9009890200,A
3936,"SERB42","Serbska",52.4315024800,16.9457868800,A
2007,"LWSWA01","Lusowo/Swadzimska",52.4314809700,16.7056440400,C
1549,"ZEWI01","Żerniki/Wieś",52.3325153980,17.0575754228,B
1308,"KALAK01","Kamionki/Łąkowa",52.2884008800,16.9816866100,B
35,"ZNIW42","Żniwna",52.4247660000,16.9268332600,A
2019,"CYCDR02","Chyby/Cedrowa",52.4522397117,16.7746729326,B
2617,"KDREJ01","Kórnik/Reja",52.2529472800,17.0821979700,C
462,"SARM01","Sarmacka",52.4470172200,16.9277737600,A
2508,"JSRDW02","Jasin/Rabowicka I",52.4002010000,17.0943020000,B
916,"LUTAR02","Luboń/Targowa",52.3383528026,16.8746259094,B
1782,"KONOW01","Komorniki/Nowa",52.3392549602,16.8157284739,B
1140,"KATE02","Katedra",52.4102740200,16.9478526000,A
1736,"PLWOL01","Plewiska/Wołczyńska",52.3763375800,16.8235693800,B
2499,"BGLIG01","Bogucin/Ligowiec",52.4377110000,17.0365700000,B
2297,"KFPET02","Karłowice/Pętla",52.4973890300,17.1066667200,C
1542,"KRWI01","Krzesiny Wiadukt",52.3399782700,16.9996564200,A
3123,"KNDOP01","Konarzewo/Dopiewska",52.3357364414,16.7084409881,C
815,"DEEC02","Dębiec PKM",52.3710025600,16.9016160500,A
1756,"GLSPO01","Głuchowo/Spokojna",52.3487174844,16.7718837531,C
1633,"KONOW04","Komorniki/Nowa",52.3380680800,16.8165677600,B
2466,"PKFOL01","Paczkowo/Folwarczna",52.4027530000,17.1636350000,C
2757,"DHKRE02","Dachowa/Kręta",52.3041175400,17.0823806100,B
2841,"LUPOL01","Luboń/Polna",52.3217137172,16.8736666678,B
1502,"PK01","Piaśnicka/Kurlandzka",52.3843560800,16.9867470100,A
1442,"NOGO02","Nowowiejskiego",52.4148221700,16.9196701800,A
3625,"LUWSC01","Luboń/Wschodnia ",52.3431159868,16.8820784789,B
3341,"RUNOA01","Rumianek/Nowa II",52.4623013300,16.6307977000,C
914,"LUTAR04","Luboń/Targowa",52.3395977753,16.8755851510,B
4029,"KOTU01","Kościelna Tunel",52.4181135019,16.9062218526,A
4252,"DWZA93","Dworzec Zachodni",52.4016395717,16.9083026691,A
1986,"BTZAK01","Batorowo/Zakrzewska",52.4241627600,16.7197013400,C
1770,"PLSZK01","Plewiska/Szkoła",52.3632100000,16.8070200000,B
831,"DENZ02","Dębina",52.3776519000,16.9268052800,A
262,"ZILAS02","Zielątkowo/Las",52.5462284100,16.8001455900,C
1574,"DMOW01","Dmowskiego",52.3870716600,16.8966194900,A
431,"LOPI01","Łopianowa",52.4868020500,16.9426238300,A
2335,"KVSKR02","Krzyżowniki/Boisko",52.3068118800,17.1316634900,B
1351,"STWI03","Starołęka Wielka",52.3415868200,16.9175363200,A
950,"WIPLD02","Wiry/Południowa",52.3175980974,16.8569168333,B
1858,"RKKAL01","Rokietnica/Os. Kalinowe",52.5050900300,16.7419787600,B
332,"SLJAG01","Suchy Las/Os. Jagodowe",52.4712284700,16.8684930200,B
1720,"POGL41","Poznań Główny",52.4030270500,16.9150742200,A
1648,"PJNZ01","Podjaryszki",52.3377043700,17.0150863200,A
234,"RSTA42","Rondo Starołęka",52.3810055800,16.9435005400,A
49,"ROSO41","Rondo Solidarności",52.4339826300,16.9379315500,A
3706,"BEPRZ01","Biskupice/Przylesie",52.4582520000,17.1668680000,C
205,"Z II41","Żegrze II",52.3807026800,16.9659212900,A
739,"GROC02","Grochowska",52.3986418900,16.8754286100,A
2923,"TZWIE01","Trzaskowo/Wieś",52.5338528600,17.0201506100,C
2124,"JRSKL02","Jaryszki/Składowa",52.3299190000,17.0162140000,B
1361,"CZER02","Czernichowska ",52.3468012300,16.9191201800,A
2241,"GWTAN01","Tanibórz/Wschód",52.3516694700,17.1465630000,B
399,"STOI02","Stoińskiego",52.4502145200,16.9271609000,A
2226,"SWORZ02","Szewce/Orzechowa",52.3588011600,17.0960952400,B
4001,"ZLGRZ04","Złotniki/Os. Grzybowe",52.4800720128,16.8577580145,B
4243,"TPMOD01","Tarnowo Pdg/Modrakowa",52.4752080000,16.6557550000,C
1420,"OBOH01","Os. Bohaterów II Wojny Światowej",52.3834586900,16.9470939000,A
1775,"RKAP72","Rondo Kaponiera",52.4083727700,16.9127450800,A
1070,"JUGO02","Jugosłowiańska",52.3911399600,16.8662390600,A
3168,"ZATRA04","Zalasewo/Transportowa",52.3812029919,17.0670792936,B
58,"OGDY41","Ogrody",52.4170536400,16.8824626700,A
2176,"BOSZK02","Bolechowo-Os./Szkoła",52.5412643600,16.9746370000,C
3940,"KNEKS01","Konarzewo/S5",52.3338958739,16.7289244860,C
2501,"JASZY01","Janikowo/Szybowcowa",52.4400610000,17.0448080000,B
3580,"UE01","Uniwersytet Ekonomiczny",52.4057383633,16.9173638130,A
3941,"COEKS02","Chomęcice/S5",52.3333364706,16.7350636324,C
564,"KRAJ02","Krajenecka",52.4547254800,16.8432035500,A
3332,"CDPOW01","Ceradz Dolny/Powstańców Wielkopolskich",52.4297049300,16.5826634500,C
605,"KOLO02","Kołobrzeska",52.4310730000,16.8385071200,A
161,"KORN44","Kórnicka",52.3991553500,16.9533801200,A
412,"OSZY02","Os. Zygmunta Starego",52.4602850600,16.9083573400,A
780,"WOPO02","Wojska Polskiego",52.4275206900,16.8978431400,A
1916,"BYPAW02","Bytkowo/Pawłowicka",52.5179181100,16.7770482300,B
3119,"TRCZI01","Trzek/Czereśniowa",52.3587731427,17.1524222827,B
1822,"PWPAW01","Pawłowice/Pawłowicka",52.4879881900,16.7987727600,B
794,"STRO01","Stróżyńskiego",52.4524870400,16.9032391400,A
2028,"KBLIP01","Kobylniki/Lipowa",52.4725984206,16.7485077727,B
2234,"GWCZE01","Gowarzewo/Czereśniowa",52.3597796300,17.1316287700,B
2619,"KDNIE02","Kórnik/Pl. Niepodległości",52.2484590700,17.0876259500,C
2660,"BEDEB02","Biernatki/Dębiecka",52.2301879000,17.1034884900,C
67,"BUKO41","Bukowska",52.4100521300,16.8888257200,A
301,"SLSZK01","Suchy Las/Szkoła",52.4763622500,16.8722816600,B
2891,"KLTOP02","Kleszczewo/Topolowa",52.3331661100,17.1771401900,B
2215,"CEKRE02","Czerwonak/Kręta",52.4753075700,16.9794763200,B
715,"ZONK02","Żonkilowa",52.3868266982,16.8182520173,A
662,"OWCZ01","Owcza",52.4069715800,16.8189420200,A
2575,"MGCME02","M. Goślina/Cmentarz",52.5712143600,17.0078878300,C
197,"BYST41","Bystra",52.3709991833,16.9345268592,A
64,"RJEZ74","Rynek Jeżycki",52.4122250800,16.9056406100,A
3850,"ROWIC01","Rosnówko/Wichrowa",52.3066573524,16.7624684276,C
2077,"LKDOP02","Lusówko/Dopiewska",52.4283745700,16.6455222800,C
3620,"KOJEZ04","Komorniki/Jeziorna",52.3289512252,16.8038191203,B
2951,"JSNZ02","Jaśkowiaka",52.4886400000,16.9153240000,A
83,"MATE71","Matejki",52.4057875800,16.9009328700,A
4043,"JROL41","Jasna Rola",52.4517717915,16.9449456990,A
2636,"BJMDW01","Błażejewo/Mikołajczyka II",52.2107484300,17.1008920600,C
2251,"POOSI01","Poklatki/Osiedle",52.3300611123,17.2034834521,B
258,"ZIOSP02","Zielątkowo/OSP",52.5599872100,16.7977223800,C
767,"SZAM02","Szamotulska",52.4044515900,16.8803991000,A
1862,"CRPRZ01","Cerekwica/Przybrodzka",52.5187811800,16.6909325200,B
1580,"PROM01","Promienista",52.3959185900,16.8810509200,A
1834,"KZDZI01","Koziegłowy/Działki",52.4496473600,17.0030254700,B
3075,"KXTEL02","Koninko/Telewizyjna",52.3088511343,17.0209619080,B
3343,"GVOSI02","Gaj Wielki/",52.4602940000,16.5752840000,C
2164,"CZWAR02","Czapury/Warta",52.3102736200,16.9104145500,B
2439,"LOPOP02","Łowęcin/II (Poprzeczna)",52.4198480000,17.1415980000,C
3253,"DOOSR03","Dopiewo/Ośrodek Zdrowia",52.3575918342,16.6834564332,C
1457,"NADW01","Nad Wierzbakiem",52.4207927400,16.9083536100,A
2216,"CEPKM02","Czerwonak/PKM",52.4681460800,16.9803936900,B
2128,"KXWEZ01","Koninko/Węzeł",52.3218895500,17.0296567300,B
1960,"PMWYS02","Przeźmierowo/Wysogotowska",52.4358981700,16.7726886200,B
1922,"SOPOZ02","Sobota/POZ BRUK",52.5169601900,16.8128209900,B
972,"LUKLO02","Luboń/Klonowa",52.3422950958,16.8563708035,B
2003,"SIDZI01","Sierosław/Działki",52.4016946000,16.6657545600,C
1786,"KNOSL01","Konarzewo/Os. 25-lecia",52.3349416700,16.7229043900,C
2484,"SDGER01","Swarzędz/Orla/Geremka",52.3967790000,17.0571480000,B
1892,"RTJOD02","Rostworowo/Jodłowa",52.5246939200,16.7500714500,B
2843,"LUKWI01","Luboń/Kwiatowa",52.3220025182,16.8793630873,B
723,"JUNI30","Junikowo",52.3835469700,16.8335096200,A
224,"POKA41","Polanka",52.3967500000,16.9625600000,A
2317,"KEKOS02","Krerowo/Kościół",52.2899883100,17.1934393400,B
2679,"SCSZK01","Szczodrzykowo/Szkoła",52.2852619500,17.1028057700,C
171,"AWF42","AWF",52.3996550000,16.9355200000,A
2530,"XRPET01","Kruszewnia/Pętla",52.3746730000,17.1031210000,C
451,"BORA01","Boranta",52.4565857324,16.9513652391,A
256,"ZIPOG01","Zielątkowo/Pogodna",52.5600237900,16.8069706400,C
968,"LUSTU01","Luboń/Studzienna",52.3428724274,16.8442991166,B
2232,"GWKAS02","Gowarzewo/Al. Kasztanowa",52.3576374500,17.1241345900,B
4054,"LISOW01","Lisówki/Sowia",52.3208202270,16.6626039962,C
115,"WIER42","Wierzbięcice",52.4017301500,16.9209242000,A
2185,"ZSNZ01","Żerniki/Skrzyżowanie",52.3265599102,17.0429654350,B
1552,"OSNZ02","Ostrowska",52.3522132200,17.0027901000,A
1338,"CZGLU01","Czapury/Głuszynka",52.3180093000,16.9129402900,B
756,"POLN02","Polna Szpital",52.4092260700,16.8907428300,A
1019,"URAD01","Uradzka",52.3558237000,16.8589186200,A
1805,"ROSTW01","Rosnówko/Stawnego",52.2996148486,16.7719575409,C
4041,"BLAZ41","Błażeja",52.4555420067,16.9446357901,A
418,"UAMG01","UAM Wydział Geografii",52.4641879876,16.9410792174,A
192,"DEEC41","Dębiec PKM",52.3728856000,16.9031857800,A
820,"MALI01","Malinowa",52.3694780000,16.9099020000,A
13,"BONN42","Bonin",52.4302063000,16.9106352900,A
2055,"RUNOW02","Rumianek/Nowa I",52.4632074200,16.6385049000,C
1058,"OPOL02","Opolska",52.3673783800,16.8970541200,A
92,"RYLA71","Rynek Łazarski",52.3939634477,16.8985036470,A
2268,"KXRSP02","Komorniki gm.Kleszczewo/RSP",52.3334087300,17.1111046500,B
1279,"CZEK02","Czekalskie",52.4048195500,16.9843631500,A
3871,"WITWI02","Witkowice/",52.4977040000,16.5294930000,C
2385,"PTCED02","Potasze/Cedrowa",52.5221500000,17.0168403000,C
1744,"PLRYN02","Plewiska/Rynek",52.3694412800,16.8137228500,B
135,"ROSR44","Rondo Śródka",52.4095004300,16.9564208700,A
1311,"KAPLA02","Kamionki/Platanowa",52.2892556900,16.9782593900,B
895,"PUPKM02","Puszczykowo/PKM",52.2946202200,16.8683995900,C
4047,"NARA71","Naramowice",52.4458593723,16.9451375473,A
2673,"DZLES01","Dziećmierowo/Leśna",52.2709152500,17.0980362200,C
2981,"KOKOL01","Komorniki/Kolejowa",52.3523200000,16.8274218800,B
57,"PIAT42","Piątkowska",52.4414917400,16.9105875300,A
2082,"JNPAL01","Jankowice/Pałac",52.4408779500,16.6172356000,C
766,"MARC04","Marcelińska",52.4048603400,16.8755535000,A
4132,"RYBI01","Rybitwy",52.4262086000,17.0639211800,A
3743,"KDBWI02","Kórnik/Bnin Witosa",52.2257259700,17.0909695900,C
2110,"GRSZK02","Góra/Szkolna",52.4820531500,16.6331125800,C
933,"LUSTP04","Luboń/Straż Pożarna",52.3463001780,16.8772675133,B
3695,"WOPO06","Wojska Polskiego",52.4288646237,16.8969245877,A
1385,"SWAN01","Św. Antoniego",52.3640272200,16.9273255500,A
1173,"CMEN01","Gnieźnieńska Cmentarz",52.4251790400,16.9937703300,A
3548,"KEPI02","Kępińska",52.3710635000,16.8786349000,A
3226,"KOTRU02","Komorniki/Truskawkowa",52.3273359738,16.8225612258,B
600,"BRAN02","Braniewska",52.4351872600,16.8231796800,A
1303,"KALIS01","Kamionki/Lisia",52.2840455900,17.0066226900,B
1403,"FORT02","Forteczna",52.3677415500,16.9386690700,A
906,"LUKRE02","Luboń/Kręta",52.3201162523,16.8781972398,B
1919,"SOKAS01","Sobota/Kasztanowa",52.5209760900,16.8035649400,B
438,"BIMLY01","Biedrusko/Młyn",52.5148237600,16.9394120800,B
4250,"GROT92","Grotkowska",52.3862048812,16.8433841477,A
1864,"MRSZA02","Mrowino/Szkoła",52.5132105000,16.6996795400,B
2155,"TULES02","Tulce/Leśna",52.3440963600,17.0730848500,B
2434,"LOLIP02","Łowęcin/Lipowa",52.4136140000,17.1214650000,C
2295,"KFDWR02","Karłowice/Dwór",52.4948070000,17.1013400000,C
2539,"SDPOG02","Swarzędz/Pogodna/Kórnicka",52.3995840000,17.0778710000,B
588,"STOB01","Stobnicka",52.4539974300,16.8010815400,A
2857,"ROSK03","Rondo Skubiszewskiego",52.3895752042,16.8544080476,A
1183,"JANI02","Janikowo",52.4365520000,17.0178593100,A
2115,"KMSTO02","Kaźmierz/Storczykowa",52.5096283700,16.5890612400,C
2542,"ZAGLE01","Zalasewo/Glebowa",52.3906200000,17.0757250000,B
1800,"SZDWO01","Szreniawa/Dworcowa",52.3186450896,16.7936954318,C
1832,"KCJON01","Kicin/Jonschera",52.4576270600,17.0168938300,B
302,"SLKOS01","Suchy Las/Kościół",52.4731420800,16.8772196700,B
4242,"TPTER02","Tarnowo Pdg/Termy",52.4634689500,16.6418115100,C
243,"CHSZK02","Chludowo/Szkoła",52.5561078600,16.8443741700,C
2521,"SDFIE02","Swarzędz/Pogodna/Średzka",52.4004940000,17.0842360000,B
3945,"KDPOP02","Kórnik/Poprzeczna",52.2505209837,17.0850097331,C
1318,"DALES01","Daszewice/Leśna",52.3024275300,16.9533250100,B
1982,"BTPOR01","Batorowo/Poranek",52.4219326200,16.7396233700,C
70,"RONJ41","Rondo Nowaka-Jeziorańskiego",52.4023512573,16.8882176253,A
4228,"RKROS03","Rokietnica/ROS",52.5122810000,16.7415660000,B
160,"KORN43","Kórnicka",52.3990164300,16.9534845600,A
1813,"SYNZ02","Sycowska II",52.3614846600,16.8366733400,A
1551,"CHRZ01","Chrzanowska",52.3473471800,17.0053267100,A
981,"LUPBO02","Luboń/Pl. Bojanowskiego",52.3497457016,16.8614916780,B
2761,"DHKLO01","Dachowa/Klonowa",52.2961681100,17.0990619100,B
1582,"PALA01","Palacza",52.3883175400,16.8811340200,A
63,"PONA71","Polna",52.4142148300,16.8972021400,A
1680,"ROLN03","Rolna",52.3843438100,16.9170321200,A
1136,"MAGA02","Małe Garbary",52.4104549400,16.9380900400,A
533,"LUTY02","Lutycka",52.4387976400,16.8957417100,A
1047,"OKUL01","Okulickiego",52.3599960000,16.8807681800,A
1873,"MRGNI01","Mrowino/Gniewka",52.5150124100,16.7196945800,B
3378,"ZLOSI02","Złotniki/Osiedle",52.4887761100,16.8543785300,B
4106,"OSKA02","Oświęcimska",52.3540567377,16.9378620686,A
2614,"RBWEZ01","Robakowo/Węzeł",52.2968074200,17.0513468000,B
2166,"TUKOS01","Tulce/Kościół",52.3420328900,17.0805671900,B
1958,"PMLES01","Przeźmierowo/Leśna",52.4315745011,16.7827453197,B
1278,"TORM01","Tor Regatowy Malta",52.4024683690,16.9894249950,A
2171,"PRPLN01","Promnice/Północna",52.5413062000,16.9655419200,C
353,"STRS02","Strzeszyn PKM",52.4619623700,16.8667445600,A
1702,"CMNA41","Cmentarna",52.3851815900,16.8390540000,A
2750,"RBSKO01","Robakowo/Szkolna Rondo",52.3088719400,17.0704373300,B
681,"DKPAR01","Dąbrówka/Parkowa",52.3843408400,16.7438659300,C
666,"MALW02","Malwowa",52.3977844500,16.8041007800,A
1322,"BBOSZ01","Babki/Ośrodek Zdrowia",52.3136827700,16.9360199100,B
2352,"UZSKR03","Uzarzewo/Skrzyżowanie",52.4603310000,17.1127990000,C
2561,"TULES03","Tulce/Leśna",52.3447680000,17.0739390000,B
2355,"UZKOS01","Uzarzewo/Centrum (Kościół)",52.4489120000,17.1266600000,C
1199,"KZSZK02","Koziegłowy/Szkoła",52.4456163792,16.9910040543,B
2195,"OWKSP02","Owińska/Ks. Piotrowskiego",52.5172277800,16.9745642100,C
955,"WIBRZ02","Wiry/Brzoskwiniowa",52.3293663082,16.8368760623,B
4218,"PERK01","Perkoza",52.4248039972,17.0649099318,A
1393,"STAR21","Starołęka PKM",52.3662288200,16.9300926300,A
4217,"PERK02","Perkoza",52.4244618431,17.0650575074,A
2438,"LOPOP01","Łowęcin/II (Poprzeczna)",52.4198620000,17.1413830000,C
1151,"KORO01","Koronkarska",52.4166131800,16.9602661700,A
2570,"MGNRY01","M. Goślina/Nowy Rynek",52.5673982400,16.9954782300,C
1234,"SCDZ02","Schronisko Dla Zwierząt",52.3891142900,17.0251558600,A
2513,"JSEKO01","Jasin/Rabowicka Pętla",52.3980640000,17.1091890000,B
4207,"KOTUL01","Komorniki/Tulipanowa",52.3484700000,16.8136300000,B
4119,"CMEP01","Cmentarna Parking",52.3901158738,16.8305450676,A
1983,"BTPOR02","Batorowo/Poranek",52.4218438200,16.7399436000,C
589,"SLUP01","Słupska",52.4483028600,16.8043734200,A
2261,"NGOZD01","Nagradowice/Ośrodek Zdrowia",52.3208087900,17.1473302500,B
2982,"KOKOL02","Komorniki/Kolejowa",52.3522075400,16.8273563100,B
985,"LUSIK02","Luboń/Sikorskiego",52.3489339532,16.8723827598,B
162,"KORN45","Kórnicka",52.3998253300,16.9528595100,A
1807,"RODKU01","Rosnówko/Dom Kultury",52.3044454046,16.7622765793,C
3734,"XOPKP01","Kobylnica/Stacja",52.4458323731,17.0806119792,B
1950,"BNRUB01","Baranowo/Os. Rubinowe",52.4289070000,16.7996410000,B
1207,"CZEA02","Czerwonacka",52.4348153317,16.9800391847,A
625,"SZPI02","Szpitalna",52.4121991900,16.8769750800,A
484,"WISE02","Wilczak/Serbska",52.4309139700,16.9539992500,A
813,"DEEC09","Dębiec PKM",52.3719292500,16.9036505400,A
439,"BIMLY02","Biedrusko/Młyn",52.5150853900,16.9394324400,B
1684,"WIMO01","Wilków Morskich",52.4779998300,16.7812816100,A
4018,"RYWI71","Rynek Wildecki",52.3929092278,16.9204481437,A
1709,"ZAME42","Zamek",52.4072400000,16.9189300000,A
2150,"KXPIS02","Koninko/Pisarska",52.3064370000,17.0135620000,B
1940,"PMCME01","Przeźmierowo/Cmentarz",52.4168795000,16.7870727600,B
2520,"XRIZA01","Kruszewnia/Os. Izabelin",52.3854370000,17.0970420000,C
1872,"MRPAR01","Mrowino/Park",52.5180287100,16.7053599400,B
1374,"ROMI03","Rondo Minikowo",52.3552717700,16.9439575900,A
2602,"MLMLO02","Młodasko/",52.4764830000,16.5425920000,C
1039,"JESI01","Jesionowa",52.3696270400,16.8930014600,A
1170,"URWI02","Urwista",52.4233037500,16.9843164300,A
677,"DBLES01","Dąbrowa/Poprzeczna",52.3925379000,16.7503689800,C
4155,"SKWRZ01","Skórzewo/Wrzosowa",52.3969547721,16.7850179845,B
635,"ZGOR02","Zgorzelecka",52.4117833700,16.8583160600,A
1784,"KOMAG01","Komorniki/Magazynowa",52.3458221129,16.8285232814,B
3092,"LUSRY01","Luboń/Strumykowa",52.3444420093,16.8984003440,B
3732,"KOKRY02","Komorniki/Kryształowa",52.3478390000,16.7833010000,B
47,"OPL41","Os. Pod Lipami",52.4310010800,16.9364029400,A
2080,"LKGRA01","Lusówko/Grabowa",52.4334361600,16.6394221600,C
3100,"CESZK03","Czerwonak/Szkolna",52.4657982376,16.9835662424,B
1231,"PIWN04","Piwna",52.3924873100,17.0147099900,A
2363,"MACEN02","Markowice/Centrum",52.3032131300,17.2239257500,B
668,"MALW04","Malwowa",52.3971935000,16.8023155400,A
2426,"SDSPR02","Swarzędz/Sporna",52.4090240000,17.0917100000,B
2299,"CEZAL01","Czerwonak/Zalesie",52.4649436430,16.9910483270,B
892,"PUWIO02","Puszczykowo/Wiosenna",52.2897239900,16.8587716600,C
1150,"KORO02","Koronkarska",52.4160584500,16.9593666900,A
1888,"KSKOS01","Krzyszkowo/Koszycy",52.5190010700,16.7364900100,B
1859,"PBPET02","Przybroda/Pętla",52.5206125000,16.6557476600,B
3909,"CZ I92","Os. Czecha I",52.3824467578,16.9834186667,A
1920,"SOKAS02","Sobota/Kasztanowa",52.5212223000,16.8028219700,B
3243,"KNMŁY02","Konarzewo/Młyńska",52.3397150535,16.7205421900,C
3099,"CESZK04","Czerwonak/Szkolna",52.4655643502,16.9832415760,B
1053,"BEDZ02","Będzińska",52.3613977000,16.8897742200,A
1016,"KOTO02","Kotowo",52.3592269200,16.8537916000,A
1441,"WIKA02","Wielkopolska",52.4155811900,16.9180060800,A
1222,"SOBI02","Sobiesława",52.4053544600,17.0227539200,A
3697,"DZDB02","Dojazd Biocentrum",52.4331409323,16.8993595857,A
118,"FRRY42","Fredry",52.4094800000,16.9184700000,A
2840,"LUPOL02","Luboń/Polna",52.3216956670,16.8731206379,B
1781,"MODL02","Modlibowskiej ",52.3545116100,16.8487692800,A
1229,"PIWN02","Piwna",52.3928587300,17.0149661200,A
4014,"SERB41","Serbska",52.4326420000,16.9463850000,A
948,"WILAS04","Wiry/Laskowska",52.3150707727,16.8630559797,B
1808,"WABUK01","Walerianowo/Bukowa",52.3149714820,16.7704375119,C
2320,"ZNNWS01","Zimin/Nowy Świat",52.2920498000,17.1722841500,B
3968,"CEBLE02","Czerwonak/Błękitna",52.4644218823,16.9988698356,B
365,"OJLY02","Os. Jagiełły",52.4535995700,16.9073589300,A
4214,"LACI41","Łacina",52.3944500000,16.9663900000,A
1147,"ZAWA02","Zawady",52.4130621900,16.9570964000,A
3954,"DEWIA02","Dębogóra/Wiązowa",52.4989976345,17.0761551951,C
3650,"JKJAN02","Jankowo/",52.4441853926,17.1693639655,C
2661,"KDBAK02","Kórnik/Bnin Biernacka",52.2338924800,17.0960409300,C
1943,"PMKRA01","Przeźmierowo/Krańcowa",52.4215714351,16.7874382249,B
2132,"SCNWO02","Szczytniki/Nad Wodą",52.3018330000,17.0164020000,B
2398,"SDCYB01","Swarzędz/Cybińska",52.4168250000,17.0885780000,B
4120,"CMEF01","Cmentarna Furtka",52.3881153633,16.8342787311,A
122,"WROC71","Wrocławska",52.4055683200,16.9321353600,A
2252,"POPET01","Poklatki/Pętla",52.3281804500,17.2025601000,B
2471,"SGPET01","Sokolniki Gwiazdowskie/Łubinowa",52.4147700000,17.1705440000,C
46,"OPL42","Os. Pod Lipami",52.4309440500,16.9362506500,A
2842,"LUKWI02","Luboń/Kwiatowa",52.3219934932,16.8789941482,B
2455,"PKSTA01","Paczkowo/Ogrodowa",52.3977070000,17.1591320000,C
5,"MT44","Most Teatralny",52.4109651200,16.9137425100,A
2384,"PTCED01","Potasze/Cedrowa",52.5221028900,17.0163732400,C
3103,"MGPOL02","M. Goślina/Polna",52.5782079136,17.0178037894,C
2395,"DELES02","Dębogóra/Leśna",52.4974469900,17.0919767300,C
1036,"GORE01","Górecka",52.3729957100,16.8932705500,A
1588,"TOKA04","Tokarska",52.3772171100,16.9128203100,A
1649,"PANZ01","Porzeczkowa",52.3616272900,17.0155978600,A
2134,"SCPET01","Szczytniki/Pętla",52.3045090000,17.0103620000,B
4220,"MWSLO02","Miękowo/Słowackiego",52.4889379498,16.9825922432,C
606,"KOLO01","Kołobrzeska",52.4315211400,16.8384039700,A
452,"BRON01","Bronisza",52.4554530500,16.9477161500,A
1052,"KORF02","Korfantego",52.3596159100,16.8875136500,A
1130,"GABA02","Garbary PKM",52.4167365300,16.9394391300,A
398,"STRU01","Strugarka",52.4541267700,16.9276875100,A
3091,"LUSRY02","Luboń/Strumykowa",52.3444420093,16.8979428596,B
1771,"MT71","Most Teatralny",52.4100216300,16.9131850300,A
1085,"SIEL72","Sielska",52.3840502200,16.8870422900,A
628,"SWOB01","Swoboda",52.4117184500,16.8741687600,A
1586,"TOKA01","Tokarska",52.3765997300,16.9137443900,A
2942,"BOZSZ01","Bolechowo-Os./Zespół Szkół",52.5503881700,16.9762534700,C
335,"SLPOZ01","Suchy Las/Os. Poziomkowe",52.4693847100,16.8728784300,B
1312,"DALIP01","Daszewice/Lipowa",52.2926206600,16.9683609800,B
1123,"WOJT01","Wójtowska",52.4300083900,16.9399070500,A
1734,"TWAR02","Twardogórska",52.3796500000,16.8282100000,A
1310,"KAPLA01","Kamionki/Platanowa",52.2891725400,16.9787976000,B
3880,"KBKAR01","Kobylniki/Karolewska",52.4758991888,16.7240102174,B
1293,"RRAT30","Rondo Rataje",52.3968735900,16.9497940800,A
151,"MILO41","Miłostowo",52.4096098600,17.0029011200,A
1386,"SWAN02","Św. Antoniego",52.3643035500,16.9276630400,A
545,"LITA01","Literacka",52.4403413400,16.8717297600,A
685,"PANOW02","Palędzie/Nowa",52.3730021400,16.7386973700,C
120,"MRCI71","Aleje Marcinkowskiego",52.4064212100,16.9284599000,A
2969,"PDPET01","Przebędowo/Pętla",52.5872258100,17.0097565300,C
824,"OSDE02","Os. Dębina",52.3615330700,16.9045535900,A
185,"TRAU41","Traugutta",52.3846407200,16.9140023000,A
2288,"WEPET01","Wierzonka/Pętla",52.4780400000,17.0951310000,C
1679,"ROLN04","Rolna",52.3838415000,16.9182885600,A
32,"WIKA41","Wielkopolska",52.4155633900,16.9185920900,A
2322,"ZNOSP02","Zimin/Świetlica OSP",52.2942037600,17.1590554600,B
315,"MORA02","Morasko",52.4892681800,16.9054379000,A
2921,"PRPLN05","Promnice/Północna",52.5417574700,16.9659340400,C
3987,"RRAT74","Rondo Rataje",52.3964900000,16.9509100000,A
113,"POLW42","Półwiejska",52.3999200000,16.9281600000,A
3166,"RKKOL02","Rokietnica/Kolejowa",52.5137009499,16.7418816267,B
190,"WSPO41","Wspólna",52.3777846200,16.9076140700,A
1657,"MILO02","Miłostowo",52.4105284700,17.0042454800,A
4076,"RKBUK01","Rokietnica/Bukowa",52.4978860000,16.7339090000,B
3989,"MBP91","Muzeum Broni Pancernej",52.4271719912,16.8474719928,A
2051,"TPPIA02","Tarnowo Pdg/Piaskowa",52.4590882000,16.6466023900,C
130,"KATE42","Katedra",52.4100987400,16.9471314700,A
2914,"SKSZA02","Skórzewo/Szarotkowa",52.3938595300,16.7962744300,B
2640,"BHPET01","Błażejewko/Pętla",52.1992748000,17.1076437400,C
2538,"SDOKR01","Swarzędz/Okrężna",52.3969850000,17.0775540000,B
962,"KOPAK02","Komorniki/Os. Parkowe",52.3370807291,16.8291873717,B
1155,"RWSC02","Rynek Wschodni",52.4209399500,16.9698606200,A
2180,"BOWOJ01","Bolechowo-Os./Wojska Polskiego",52.5417104200,16.9724615900,C
2912,"SZWE01","Szwedzka",52.3820321731,16.9911811451,A
4107,"OSKA01","Oświęcimska",52.3544084564,16.9371094328,A
887,"PURON02","Puszczykowo/Rondo Heigelmanna",52.2812281400,16.8512104300,C
170,"LAKO42","Łąkowa",52.4020600000,16.9342900000,A
1937,"PMBRZ02","Przeźmierowo/Brzozowa",52.4198882200,16.7745052700,B
3841,"RZEG44","Rondo Żegrze",52.3770800000,16.9565900000,A
2131,"SCSAR01","Szczytniki/Sarnia",52.2994680000,17.0113330000,B
283,"ZLLAG01","Złotniki/Łagiewnicka",52.4921588600,16.8460696500,B
3865,"FRWO04","Franowo",52.3815600000,17.0000700000,A
2221,"KZLIP02","Koziegłowy/Lipowa",52.4555496900,16.9844963200,B
2540,"SDPOG01","Swarzędz/Pogodna/Kórnicka",52.3995700000,17.0779220000,B
216,"PK42","Piaśnicka/Kurlandzka",52.3852315850,16.9871966030,A
2409,"JADZ02","Jaryszki/Działki",52.3337244446,17.0190434248,B
1537,"JARO02","Jarosławska",52.3433902200,16.9854203600,A
1201,"KZOSK01","Koziegłowy/Os. Karolin",52.4437083867,16.9899562673,B
2639,"BHDZI02","Błażejewko/Działkowa",52.2043970800,17.1034709100,C
2632,"KDWIE01","Kórnik/Bnin Wierzbowa",52.2231962600,17.0963136300,C
785,"UP01","Uniwersytet Przyrodniczy",52.4261442500,16.9049661800,A
4028,"KOTU02","Kościelna Tunel",52.4180684749,16.9064727312,A
2325,"SRSKR02","Śródka/Skrzyżowanie",52.2998666500,17.1229715900,B
2674,"SCPKM02","Szczodrzykowo/Kórnik PKM",52.2807487000,17.1043487100,C
2311,"LPLIP02","Lipowiec/",52.3186634400,17.1834257500,B
1967,"SAWIA01","Sady/Wiadukt",52.4487056400,16.7246752600,C
1780,"KONOW02","Komorniki/Nowa",52.3388038837,16.8148430201,B
2348,"XOSZK02","Kobylnica/Szkoła",52.4473950000,17.0796440000,B
380,"SOB21","Os. Sobieskiego",52.4650301900,16.9171600600,A
3241,"KNSZK02","Konarzewo/Szkoła",52.3360612395,16.7186237068,C
2073,"LKSZA01","Lusówko/Szantowa",52.4395156300,16.6443722900,C
3547,"KEPI01","Kępińska",52.3711480000,16.8776533000,A
1533,"POKR01","Pokrzywno",52.3512813700,16.9816680600,A
2600,"MLMLO01","Młodasko/",52.4777220000,16.5402780000,C
1106,"OPL01","Os. Pod Lipami",52.4312643600,16.9366546100,A
993,"LUCME01","Luboń/Cmentarz",52.3489900000,16.8505940000,B
4045,"OLOK41","Os. Łokietka",52.4482262351,16.9450932746,A
1158,"GLOW03","Główna",52.4223130200,16.9767435600,A
45,"WILC41","Wilczak",52.4271476000,16.9467686700,A
4223,"ZEFPP01","Żerniki/Fabryczna Panattoni Park",52.3317664900,17.0277208700,B
699,"ZKZAC01","Zakrzewo/Zacisze",52.3899850400,16.7388852200,C
3939,"UNLU04","Unii Lubelskiej",52.3721440700,16.9504207500,A
3969,"CEBLE01","Czerwonak/Błękitna",52.4645028455,16.9983680785,B
3329,"GRDLI01","Góra/Długa I",52.4827227400,16.6443198100,C
4005,"SDWPR02","Swarzędz/Węzeł Przesiadkowy",52.4044952535,17.0733955307,B
1346,"CZLES01","Czapury/Leśna",52.3230381000,16.9125335000,B
144,"KRAN42","Krańcowa",52.4094277500,16.9810464800,A
1065,"OSKO01","Os. Kopernika",52.3855792700,16.8635917600,A
793,"ALSO04","Aleje Solidarności",52.4353311700,16.9207035900,A
3649,"PNSTA01","Promno/Stacja",52.4716899913,17.2114672939,C
943,"LUPSI01","Luboń/Park Siewcy",52.3332823344,16.8894425031,B
218,"SZWE42","Szwedzka",52.3821217700,16.9909330100,A
2519,"XRIZA02","Kruszewnia/Os. Izabelin",52.3851600000,17.0972610000,C
1471,"OSWI01","Os. Oświecenia",52.3888455200,16.9587077100,A
1867,"MRSZA04","Mrowino/Szkoła",52.5143312600,16.6985976700,B
4215,"LACI42","Łacina",52.3946600000,16.9660600000,A
437,"IMBI02","Imbirowa",52.5003817200,16.9387436800,A
1060,"KACZ02","Kacza",52.3803918213,16.8623033440,A
2060,"JNPET01","Jankowice/Pętla",52.4393913900,16.6206655700,C
2487,"SDTRA02","Swarzędz/Tysiąclecia",52.4022230000,17.0713860000,B
2459,"SEMIO01","Siekierki Wielkie/Miodowa",52.3869170000,17.1599570000,C
1129,"WIGR02","Winogrady",52.4221437800,16.9470718400,A
1429,"AWF04","AWF",52.3994295800,16.9340947100,A
1480,"BOBR01","Bobrzańska",52.3852717900,16.9690716400,A
2188,"BOPOL04","Bolechowo/Poligonowa",52.5431887900,16.9853288400,C
1363,"STAS02","Staszowska",52.3451021900,16.9266982900,A
1597,"ROBO01","Robocza",52.3881451000,16.9109422700,A
89,"DWZA72","Dworzec Zachodni",52.4017716400,16.9090824300,A
1057,"CIES01","Cieszyńska",52.3654909200,16.8943995000,A
128,"MAGA41","Małe Garbary",52.4107493300,16.9374709200,A
138,"ROSR47","Rondo Śródka",52.4105194500,16.9573420600,A
988,"LUOLU01","Luboń/Os. Lubonianka",52.3481582686,16.8806765104,B
1289,"KOWO01","Kopiec Wolności",52.3982756800,16.9755023100,A
386,"SZYM02","Szymanowskiego",52.4601525700,16.9170216000,A
28,"KURP41","Kurpińskiego",52.4507725100,16.9196313300,A
238,"RSTA47","Rondo Starołęka",52.3799600900,16.9440334600,A
1625,"ORZE01","Os. Rzeczypospolitej",52.3851180600,16.9444212900,A
114,"POLW41","Półwiejska",52.3999700000,16.9279200000,A
1260,"DYMK03","Dymka",52.3932683700,16.9906881700,A
2548,"ZAHSZ02","Zalasewo/Heweliusza Szkoła",52.3848580000,17.0687360000,B
552,"TOLT02","Tołstoja",52.4499525500,16.8705847400,A
1440,"WIKA01","Wielkopolska",52.4153339000,16.9179643600,A
3275,"KSMI01","Księcia Mieszka I",52.4300980437,16.9201529925,A
3742,"RBWIE02","Robakowo/Wiejska",52.3119412000,17.0714530700,B
322,"DESZ02","Deszczowa",52.4716679700,16.9019816600,A
3856,"MWSTO01","Miękowo/Stokrotkowa",52.4902416133,16.9895430556,C
1111,"OZIM02","Ozimina",52.4277672700,16.9236348800,A
563,"STST21","Stary Strzeszyn",52.4518353900,16.8489658700,A
267,"GOSZK01","Golęczewo/Szkoła",52.5350996600,16.8190061700,C
1078,"KORD02","Kordeckiego",52.3862784200,16.8795714400,A
976,"LUSZN01","Luboń/Szkolna",52.3427641783,16.8681030664,B
2547,"ZAOZA01","Zalasewo/Os. Zamoyskiego",52.3887230000,17.0686280000,B
1844,"RKGOL02","Rokietnica/Golęcińska",52.5044872100,16.7610926700,B
801,"ZAME01","Zamek",52.4084429900,16.9179373900,A
2050,"TPPIA01","Tarnowo Pdg/Piaskowa",52.4585138600,16.6454551200,C
1332,"SYPN02","Sypniewo",52.3079383100,16.9825033600,A
2271,"KCPET02","Kicin/Pętla",52.4654992100,17.0213179200,B
183,"HEWI42","Hetmańska Wiadukt",52.3826620500,16.9294650500,A
497,"WIKT01","Wiktoria",52.4385179000,16.9310719500,A
2135,"KXGRA01","Koninko/Granatowa",52.3066750000,17.0204650000,B
2920,"PRPLN06","Promnice/Północna",52.5427118000,16.9655759500,C
2366,"BNSZK01","Baranowo/Wypoczynkowa Szkoła",52.4425420000,16.7911060000,B
829,"PINZ02","Piastowska",52.3722627000,16.9185810400,A
1863,"CRPRZ02","Cerekwica/Przybrodzka",52.5187415600,16.6909824600,B
2993,"LOZO01","Łozowa",52.3688600000,16.9078900000,A
2096,"TPZIE01","Tarnowo Pdg/Zielona",52.4676001100,16.6577562800,C
2486,"SDTRA01","Swarzędz/Tysiąclecia",52.4024090000,17.0735500000,B
1783,"KOMAG02","Komorniki/Magazynowa",52.3454522855,16.8273869490,B
124,"PLRA42","Pl. Ratajskiego",52.4095986000,16.9239237500,A
3635,"KRZA02","Krzyżowa",52.3909448876,16.9248016249,A
604,"SMOC01","Smochowice",52.4321195300,16.8323893000,A
125,"PLRA41","Pl. Ratajskiego",52.4095816900,16.9241997100,A
1225,"ZIEM01","Ziemowita",52.4031248000,17.0203630400,A
310,"SLLAK01","Suchy Las/Łąkowa",52.4811305700,16.8790950300,B
1884,"NAPAR02","Napachanie/Park",52.4866430000,16.7285900000,B
1626,"ORZE02","Os. Rzeczypospolitej",52.3859543100,16.9454856500,A
811,"POGL01","Poznań Główny",52.4025035600,16.9121744200,A
1063,"MRAG01","Mrągowska",52.3823134000,16.8650648000,A
1223,"SOBI01","Sobiesława",52.4055865700,17.0232445100,A
1099,"PALM02","Palmiarnia",52.4011323300,16.9000809700,A
3934,"WLOD41","Włodarska",52.4363186361,16.9470855457,A
1075,"SCIE04","Ściegiennego",52.3898548100,16.8749956700,A
583,"ADMI02","Admiralska",52.4757478100,16.7774765600,A
2645,"JMJMM02","Jeziory Małe/",52.1671102400,17.1484836500,D
2196,"OWKSP04","Owińska/Ks. Piotrowskiego",52.5167176300,16.9755695100,C
1868,"MRTOW02","Mrowino/Towarowa",52.5059881100,16.7069127600,B
2512,"JSRCZ01","Jasin/Rabowicka II",52.3986160000,17.1053770000,B
347,"KOSO02","Kosowska",52.4560162800,16.8773008700,A
306,"SLNWR02","Suchy Las/Nowy Rynek",52.4750612400,16.8791538900,B
48,"ROSO42","Rondo Solidarności",52.4339380800,16.9377328700,A
2122,"TUOSP01","Tulce/Przylesie",52.3461490600,17.0621922600,B
1398,"BYST02","Bystra",52.3707231600,16.9340445900,A
2655,"PSWIE02","Prusinowo/Wieś",52.1992802700,17.1265615400,C
1443,"NOGO01","Nowowiejskiego",52.4151953600,16.9196176500,A
1202,"KZOSK02","Koziegłowy/Os. Karolin",52.4440953919,16.9905760850,B
2950,"JSNZ01","Jaśkowiaka",52.4886360000,16.9146980000,A
944,"LURUT02","Luboń/Rutkiewicz",52.3254589595,16.8875387774,B
1061,"KACZ01","Kacza",52.3804992200,16.8621902600,A
1694,"KRAS71","Kraszewskiego",52.4091315800,16.9028608300,A
940,"LUDEB02","Luboń/Dębiecka",52.3526047411,16.9012633113,B
3073,"KANKA01","Kamionki/Nad Kople",52.2892567218,17.0003013193,B
350,"MORS02","Morszyńska",52.4582613800,16.8719060700,A
1875,"MRLES01","Mrowino/Leszka",52.5137826900,16.7253388000,B
206,"Z II42","Żegrze II",52.3807152400,16.9661947200,A
736,"DRZE01","Drzewieckiego",52.3969736500,16.8675910400,A
180,"OPIA42","Os. Piastowskie",52.3899918400,16.9471448300,A
414,"UAMK02","UAM Kampus",52.4637778900,16.9305139300,A
1166,"SMNA02","Smolna",52.4230283300,16.9641699300,A
441,"BIJES02","Biedrusko/Jesionowa",52.5363894500,16.9437250300,B
1514,"KLEN02","Klenowska",52.3757783700,16.9857577600,A
880,"PUMAJ02","Puszczykowo/3 Maja",52.2721878700,16.8686865800,C
2606,"PXPIE01","Piersko/Rolna",52.5077220000,16.4811940000,C
4131,"RYBI02","Rybitwy",52.4260555400,17.0640244800,A
1965,"SWAUC01","Swadzim/Auchan",52.4390070100,16.7634412500,B
393,"OSBA02","Os. Batorego",52.4605144200,16.9286422400,A
3924,"FALI01","Falista",52.3696700000,16.9488400000,A
866,"MORON02","Mosina/Rondo",52.2433488100,16.8476093900,C
3959,"LKRPE01","Lusówko/Rozalin Pętla",52.4077380800,16.6322476900,C
2274,"KYTRA01","Kliny/Trakt",52.4755891600,17.0330154500,C
316,"MOKO02","Morasko Kościół",52.4887599500,16.9084893200,A
1391,"STAW01","Starołęcka Wiadukt",52.3505683100,16.9208113400,A
2610,"SWKI01","Świątniczki",52.3357163000,17.0105503100,A
2191,"BOOGR02","Bolechowo-Os./Ogrodowa",52.5336508600,16.9770254100,C
4221,"KASTO01","Kamionki/Stokrotkowa",52.2907198300,16.9740476100,B
1792,"COJES02","Chomęcice/Jesionowa",52.3305800000,16.7583600000,C
236,"RSTA43","Rondo Starołęka",52.3805416700,16.9421001900,A
2491,"SDDWO01","Swarzędz/Dworzec Kolejowy",52.4046730000,17.0751530000,B
458,"KULY01","Kupały",52.4507628200,16.9370899500,A
998,"LANG02","Lange",52.3560442600,16.8335880300,A
2635,"BJMJE02","Błażejewo/Mikołajczyka I",52.2172539400,17.0982873900,C
3550,"KCZA01","Kotowicza",52.3669923000,16.8844597000,A
16,"SLKA41","Słowiańska",52.4271586000,16.9194629700,A
2483,"SDARM02","Swarzędz/Armii Poznań/Szkoła",52.3955270000,17.0667990000,B
2498,"BGLIG02","Bogucin/Ligowiec",52.4373380000,17.0348210000,B
3319,"UAMF92","UAM Wydział Fizyki",52.4651595421,16.9294207423,A
1938,"PMOLS02","Przeźmierowo/Kasztanowa",52.4184027000,16.7791018800,B
2839,"LUPPR01","Luboń/Park Przemysłowy",52.3302325558,16.8937221964,B
304,"SLOSZ02","Suchy Las/Os. Szafirowe",52.4708894787,16.8753490300,B
659,"PERZ02","Perzycka",52.4118341400,16.8189917400,A
911,"LUPAR02","Luboń/Parkowa",52.3338688062,16.8758507872,B
4027,"SZYD02","Szydłowiecka",52.3584470000,16.9453820000,A
1245,"SDPRZ02","Swarzędz/Przybylskiego",52.4013152554,17.0555536366,B
2265,"KXOSP02","Komorniki gm.Kleszczewo/OSP",52.3305061600,17.1114584500,B
3177,"BRKA01","Brneńska",52.3933507417,16.9638206226,A
3846,"WIKOS03","Wiry/Kościół",52.3212000000,16.8513900000,B
1433,"PLBE02","Pl. Bernardyński",52.4040241900,16.9370262300,A
202,"RZEG41","Rondo Żegrze",52.3767000000,16.9542600000,A
1064,"OSKO02","Os. Kopernika",52.3850983900,16.8633860200,A
1431,"AWF05","AWF",52.4008328400,16.9365209600,A
731,"WEGO01","Węgorka",52.3928442000,16.8585486500,A
1283,"BAKA01","Baraniaka",52.4032789700,16.9555193700,A
1463,"KOSC01","Kościelna",52.4134830800,16.9040055500,A
1579,"TECZ01","Tęczowa",52.3932748800,16.8789906500,A
809,"MT01","Most Teatralny",52.4109129400,16.9139456400,A
927,"LUSTR02","Luboń/Streicha",52.3486182692,16.8902246539,B
2425,"SDCEH02","Swarzędz/Wrzesińska",52.4093580000,17.0855180000,B
1132,"GABA03","Garbary PKM",52.4166455993,16.9377587656,A
1766,"PLSKO01","Plewiska/Szkolna",52.3577726400,16.8073671600,B
1536,"JARO01","Jarosławska",52.3431891600,16.9853661000,A
467,"UMUL01","Umultowska",52.4442552500,16.9288232700,A
281,"ZLPAW02","Złotniki/Pawłowicka",52.4981670100,16.8391154200,B
3211,"WKGRO02","Więckowice/Gromadzka",52.3935590000,16.6383820000,C
331,"SLBOR01","Suchy Las/Borówkowa",52.4736028600,16.8637106000,B
896,"PUPKM01","Puszczykowo/PKM",52.2945244600,16.8691190000,C
4156,"SKWRZ02","Skórzewo/Wrzosowa",52.3966033921,16.7854311963,B
1510,"SZCH01","Szwajcarska Centrum Handlowe",52.3844920000,16.9969169300,A
1359,"TARN01","Tarnobrzeska",52.3459755700,16.9185824100,A
156,"RRAT72","Rondo Rataje",52.3949000000,16.9499800000,A
3855,"MWKOL03","Miękowo/Kolejowa",52.4983504319,16.9772647628,C
1988,"LWBOC02","Lusowo/Boczna",52.4214597900,16.7179080400,C
2098,"TPOKR01","Tarnowo Pdg/Okrężna",52.4693106700,16.6515268200,C
2104,"KHKRE02","Kokoszczyn/Kręta",52.4916755100,16.6530352500,C
2081,"JNPAL02","Jankowice/Pałac",52.4407939900,16.6173347100,C
1560,"OLIW01","Oliwkowa",52.3598241300,17.0193553100,A
1189,"KZZDR02","Koziegłowy/Zakłady Drobiarskie",52.4413992000,17.0001141400,B
1746,"PLSKR02","Plewiska/Skryta",52.3717857300,16.8170255900,B
248,"CHWAR02","Chludowo/Wargowska",52.5600436400,16.8321087600,C
1748,"PLSTP02","Plewiska/Straż Pożarna",52.3653363700,16.8078368100,B
789,"WINI01","Os. Winiary",52.4353447800,16.9103950800,A
4004,"XOPKP10","Kobylnica/Stacja",52.4457963742,17.0811432515,B
1093,"CHOC02","Chociszewskiego",52.3914789000,16.8933098000,A
4123,"ZIEB02","Ziębicka",52.3837986376,16.8447270860,A
692,"DPPRZ01","Dopiewiec/Przejazd Kolejowy",52.3595712200,16.6915253900,C
1921,"SOPOZ01","Sobota/POZ BRUK",52.5166395300,16.8137192000,B
1416,"SZII01","Os. Stare Żegrze",52.3802102300,16.9567735200,A
1886,"RKMIC01","Rokietnica/Mickiewicza",52.5158567900,16.7396183900,B
2507,"JSRJE01","Swarzędz/Rabowicka",52.4015320000,17.0853810000,B
397,"STRU02","Strugarka",52.4532731100,16.9274707300,A
2139,"BRLAS01","Borówiec/Las",52.2926950000,17.0452120000,B
1913,"BYPOR02","Bytkowo/Porzeczkowa",52.5161563000,16.7720989300,B
3750,"DHOKE02","Dachowa/Okrężna",52.3040413400,17.0977596500,B
1668,"SOB26","Os. Sobieskiego",52.4652405040,16.9163750563,A
904,"LULAS01","Luboń/Lasek",52.3225891395,16.8867123538,B
3613,"WIPKM02","Wiry/PKM",52.3157387225,16.8671290672,B
84,"BALT71","Bałtyk",52.4065890000,16.9110520000,A
923,"LUPKM02","Luboń/PKM",52.3440811908,16.8923054704,B
3741,"KXMAG01","Koninko/Magazynowa",52.3155122200,17.0309845800,B
490,"ROSO03","Rondo Solidarności",52.4352952900,16.9372831400,A
2035,"TPKAR01","Tarnowo Pdg/Karolewo III",52.4744062289,16.7012983274,C
100,"ARCI41","Arciszewskiego",52.3928844400,16.8867070100,A
3310,"ARNI02","Arnikowa",52.4915901901,16.9420237014,A
3605,"KLIM01","Klimontowska",52.3390023579,16.9212155370,A
3614,"WIPKM01","Wiry/PKM",52.3160907461,16.8677931576,B
1194,"KZTJE02","Koziegłowy/Taczaka I",52.4479848100,17.0008845100,B
1654,"MRCI01","Aleje Marcinkowskiego",52.4081073812,16.9293469545,A
2657,"BEJAR01","Biernatki/Jarzębinowa",52.2142339900,17.1168193700,C
3121,"KNKOS02","Konarzewo/Kościelna",52.3348080000,16.7112690000,C
763,"MARC02","Marcelińska",52.4042609700,16.8762033700,A
213,"PIAR41","Piaśnicka Rynek",52.3876647854,16.9824741827,A
1634,"KOJEZ03","Komorniki/Jeziorna",52.3295200000,16.8031500000,B
2123,"KMRYN01","Kaźmierz/Rynek",52.5132944400,16.5831383400,C
3229,"KOWZG01","Komorniki/Os. Zielone Wzgórze ",52.3251340836,16.8207608030,B
1828,"CECME01","Czerwonak/Cmentarz",52.4581666900,16.9955009300,B
3156,"JAII01","Jasielska II",52.4442310000,16.8928590000,A
647,"MALE02","Malechowska",52.4117440800,16.8300521500,A
2236,"GWOSP02","Gowarzewo/OSP",52.3645166500,17.1238394000,B
2671,"DZSLO01","Dziećmierowo/Słoneczna",52.2668494800,17.0982606800,C
2336,"KVSKR01","Krzyżowniki/Boisko",52.3065438100,17.1315586200,B
4015,"LENA42","Lechicka/Naramowicka",52.4400811731,16.9464362129,A
665,"ZLDZ02","Złotowska Działki",52.4016095000,16.8105267900,A
247,"CHTYS02","Chludowo/Tysiąclecia",52.5594717900,16.8382236600,C
1094,"CHOC01","Chociszewskiego",52.3918764200,16.8940733300,A
1428,"AWF03","AWF",52.3987909900,16.9367852400,A
732,"STMI05","Stadion Miejski",52.3948915200,16.8613559400,A
725,"CMNA02","Cmentarna",52.3848173100,16.8394336800,A
1842,"KISTA01","Kiekrz/Starzyńska",52.4973581600,16.7688430500,B
1991,"LWGRZ02","Lusowo/Grzybowa",52.4192304600,16.7180372500,C
1362,"STAS01","Staszowska",52.3450232200,16.9275027300,A
217,"SZWE41","Szwedzka",52.3821058400,16.9908248300,A
2492,"SDKUT02","Swarzędz/Kościuszki",52.4048850000,17.0810670000,B
174,"GWAR71","Gwarna",52.4073590000,16.9211080000,A
1914,"BYPOR01","Bytkowo/Porzeczkowa",52.5161970300,16.7719880400,B
2580,"MGPKM01","M. Goślina/PKM",52.5748699583,17.0150441251,C
1044,"BUCZ01","Buczka",52.3638621700,16.8787710900,A
922,"LURAT01","Luboń/Ratajskiego",52.3384430192,16.8916413800,B
3849,"ROWIC02","Rosnówko/Wichrowa",52.3062691410,16.7619371553,C
639,"LESK01","Leśnych Skrzatów",52.4124386400,16.8500791800,A
126,"PLWI42","Pl. Wielkopolski",52.4103531800,16.9308266000,A
159,"KORN42","Kórnicka",52.3987724600,16.9522537500,A
1341,"CZSZK02","Czapury/Szkoła",52.3144885800,16.9117173900,B
2228,"GWJES01","Gowarzewo/Jesionowa",52.3532834800,17.1118970900,B
1043,"KOZM01","Koźmińska",52.3692065300,16.8765909200,A
2532,"RASKL01","Rabowice/Składowisko",52.3802360000,17.1116670000,C
3838,"KCNOS02","Kicin/Nowe Osiedle",52.4676962780,17.0111776435,B
2227,"GWJES02","Gowarzewo/Jesionowa",52.3531200800,17.1118252100,B
1175,"GNNZ01","Gnieźnieńska I",52.4279019100,17.0021879600,A
2794,"PTJOD01","Potasze/Jodłowa",52.5244519700,17.0299407900,C
3863,"FONA02","Folwarczna",52.3890100000,17.0090200000,A
1219,"BONY01","Bożeny",52.4106652900,17.0160726900,A
271,"GOOBO02","Golęczewo/Obornicka",52.5350930700,16.8354304500,C
2152,"TUSZK02","Tulce/Szkoła",52.3449015000,17.0673303800,B
1578,"TECZ02","Tęczowa",52.3929166000,16.8786886700,A
1030,"RAKO01","Rakoniewicka",52.3775167500,16.8803468800,A
2574,"MGCME01","M. Goślina/Cmentarz",52.5710909200,17.0079356000,C
4052,"TLLZA02","Trzcielin/Leśne Zacisze",52.3276247381,16.6732146842,C
508,"LUSZ01","Lutycka Szpital",52.4412379000,16.9072570100,A
1646,"PLWI43","Pl. Wielkopolski",52.4102569400,16.9316672700,A
2838,"ZAOSL92","Zalasewo/Os. Leśne",52.3835102401,17.0603498447,B
2358,"GRKAT01","Gruszczyn/Katarzyńska",52.4326600000,17.0730700000,B
4044,"OLOK42","Os. Łokietka",52.4479022614,16.9450932746,A
694,"DOOSR01","Dopiewo/Ośrodek Zdrowia",52.3591770600,16.6825271300,C
4092,"PKPKM10","Paczkowo/PKM",52.3962069600,17.1583400656,C
3861,"KBSWI01","Kobylniki/Tarnowska",52.4708804800,16.7238921600,B
2526,"ZAOLS02","Zalasewo/Olszynowa",52.3886820000,17.0934280000,B
3709,"JKMLY02","Jankowo/Młyn",52.4555450000,17.1635760000,C
134,"ROSR43","Rondo Śródka",52.4095338300,16.9562091400,A
222,"OSTY41","Os. Tysiąclecia",52.3922581500,16.9722808200,A
1387,"ZEGL01","Żeglarska",52.3566341900,16.9237549200,A
3137,"CESWW01","Czerwonak/Św. Wojciecha",52.4575844467,16.9933209918,B
672,"SKGIM01","Skórzewo/Kozierowskiego Szkoła",52.3906001200,16.7780093800,B
1177,"BOBA01","Bogucin Bałtycka",52.4302054700,17.0112901700,A
3155,"ZLJAS01","Złotniki/Jaskółcza",52.4819244759,16.8539505631,B
3634,"KJCH02","Konopackiej",52.3564360000,16.8415590000,A
3704,"TRWYD02","Trzek/Wydzierżewice",52.3476982631,17.1710758428,B
2300,"CEZAL02","Czerwonak/Zalesie",52.4649526388,16.9914910539,B
890,"PUKOS02","Puszczykowo/Kościelna",52.2868372500,16.8561380700,C
3228,"KOWZG02","Komorniki/Os. Zielone Wzgórze ",52.3247640831,16.8204656518,B
932,"LUSTP01","Luboń/Straż Pożarna",52.3452989415,16.8779463612,B
1713,"PAWI02","Park Wilsona",52.3981793400,16.9023767200,A
1251,"SDKUP02","Swarzędz/Kupiecka",52.3977470000,17.0721820000,B
907,"LUPOD01","Luboń/Podgórna",52.3250799374,16.8793335721,B
1333,"GLUS02","Głuszyna",52.3215929000,16.9482896200,A
3699,"RATA72","Ratajczaka",52.4065150000,16.9244220000,A
276,"ZOCED02","Złotkowo/Cedrowa",52.5088791200,16.8369692000,B
1082,"CZNZ01","Częstochowska",52.3841036300,16.8830213000,A
554,"PUSA02","Puszkina",52.4527483700,16.8649292500,A
2569,"MGKRT02","M. Goślina/Kręta",52.5667142700,16.9992865200,C
4166,"PAWL01","Pawłowicka",52.4781025600,16.7862871300,A
2153,"KAPOL01","Kamionki/Polna",52.2868362500,16.9866283700,B
1171,"GNIE01","Gnieźnieńska",52.4236887200,16.9884845700,A
1186,"JAASF01","Janikowo/Asfaltowa",52.4406482262,17.0278094174,B
1262,"CHAR02","Chartowo",52.3964660400,16.9821881100,A
1608,"KART01","Kartuska",52.4539337000,16.8798292600,A
2023,"CYLIP02","Chyby/Lipowa",52.4602565710,16.7625127003,B
765,"MARC03","Marcelińska",52.4039261400,16.8753788800,A
616,"PLOT01","Przelot",52.4262619600,16.8599110000,A
2118,"NKRZ02","Nad Krzesinką",52.3358593100,17.0097223700,A
1723,"POGL05","Poznań Główny",52.4016093600,16.9156987800,A
1539,"KRNY02","Krzesiny",52.3412578600,16.9881387800,A
1851,"RKROS04","Rokietnica/ROS",52.5123930300,16.7420143000,B
1737,"PLSLO02","Plewiska/Słoneczna",52.3663613300,16.8319087700,B
2863,"TRZE03","Trzebińska",52.3675185700,16.8402906500,A
2633,"KDWIE02","Kórnik/Bnin Wierzbowa",52.2233181500,17.0961273300,C
4231,"PRISK91","Promnice/Klub Iskra",52.5485342739,16.9642928646,C
1002,"TRZE01","Trzebińska",52.3680834800,16.8421916800,A
632,"KLRA02","Kolorowa",52.4118094600,16.8650660500,A
241,"TRAU45","Traugutta",52.3856225400,16.9148690100,A
2213,"CEOPP02","Czerwonak/Os. Przylesie PKM",52.4808199700,16.9787556700,B
671,"SKOSM01","Skórzewo/Os. Makowe",52.3895040000,16.7810874900,B
4122,"ZIEK02","Ziębicka Kościół",52.3820051348,16.8476343260,A
2017,"BNUNP01","Baranowo/Uniwersytet Przyrodniczy",52.4490001626,16.7835717433,B
1575,"DMOW02","Dmowskiego",52.3874134900,16.8973474700,A
314,"SLKRA01","Suchy Las/Krańcowa",52.4813058000,16.8860568100,B
2324,"ZNSZK02","Zimin/Szkoła",52.2953961100,17.1517947500,B
535,"LUDO02","Lutycka/Dojazd",52.4408859400,16.9015685900,A
2470,"SGSOK01","Sokolniki Gwiazdowskie/Sokolnicka",52.4092450000,17.1672800000,C
1895,"RTSOB01","Rostworowo/Sobocka",52.5373891300,16.7591202400,B
19,"NADW42","Nad Wierzbakiem",52.4213126600,16.9081035700,A
2318,"KECME01","Krerowo/Cmentarz",52.2900075900,17.1844939200,B
1675,"BAKA03","Baraniaka",52.4032123900,16.9542642700,A
3868,"MOGI41","Mogileńska",52.4097737200,16.9925831100,A
652,"BRZE02","Brzechwy",52.4077735600,16.8440425500,A
2008,"LWSZK02","Lusowo/Szkoła",52.4333192800,16.7017828600,C
1568,"KOCEN02","Komorniki/Centrum",52.3355844500,16.8069646800,B
576,"NJEZ01","Nad Jeziorem",52.4732931600,16.7943800500,A
2500,"JASZY02","Janikowo/Szybowcowa",52.4397750000,17.0434020000,B
2888,"GOSP02","Gospodarska",52.3556800314,17.0280160233,A
432,"RDWA02","Rdestowa",52.4892888700,16.9417493000,A
2070,"LKADM01","Lusówko/Admiralska",52.4423930900,16.6340187400,C
2387,"CEUGM03","Czerwonak/Urząd Gminy",52.4716828700,16.9888792100,B
80,"STMI41","Stadion Miejski",52.3957224800,16.8632981200,A
2056,"RUSZK02","Rumianek/Szkolna",52.4621237800,16.6240799700,C
599,"BRAN01","Braniewska",52.4352589000,16.8216492500,A
2141,"BRDEB01","Borówiec/Dębowa",52.2903510000,17.0450950000,B
2002,"SIPRO01","Sierosław/Prosta",52.4026089100,16.6700099800,C
788,"WINI02","Os. Winiary",52.4347906600,16.9087822900,A
4170,"SLCME01","Suchy Las/Cmentarz",52.4718518910,16.8557509858,B
1195,"KZKRO01","Koziegłowy/Krótka",52.4471103156,16.9956379292,B
24,"ALSO41","Aleje Solidarności",52.4359483100,16.9202087300,A
1392,"STAW02","Starołęcka Wiadukt",52.3512638600,16.9213346700,A
556,"ZOWY01","Żołnierzy Wyklętych",52.4408092500,16.8675299200,A
4240,"BUDZ93","Budziszyńska",52.3879171096,16.8479885075,A
1299,"BRPOD02","Borówiec/Pod Borem",52.2804138600,17.0276079800,B
2298,"TCPET01","Tuczno/Pętla",52.5155781700,17.1367033100,C
4114,"SEGO02","Smoluchowskiego",52.3936570958,16.8482098709,A
619,"PONZ01","Polska",52.4186600000,16.8729303300,A
755,"POLN01","Polna Szpital",52.4090092300,16.8935784100,A
2477,"SDPIA02","Swarzędz/Piaski",52.4076060000,17.0759670000,B
1585,"TRAU02","Traugutta",52.3844670500,16.9153047500,A
1692,"UE42","Uniwersytet Ekonomiczny",52.4064200000,16.9171400000,A
123,"WROC72","Wrocławska",52.4056098100,16.9323084800,A
158,"KORN41","Kórnicka",52.3987998700,16.9520989000,A
1981,"BTWID01","Batorowo/Widok",52.4218991500,16.7463578200,C
377,"SOSZ01","Os. Sobieskiego Szkoła",52.4657475600,16.9065992000,A
4135,"SOB91","Os. Sobieskiego",52.4636932100,16.9164340900,A
1839,"KIZIE02","Kiekrz/Zielona",52.4919982200,16.7728699100,B
591,"KRZY01","Krzyżowniki",52.4418011800,16.8075931300,A
946,"WINOW01","Wiry/Nowa",52.3175890715,16.8703167009,B
499,"SUSZ01","Suszki",52.4468964900,16.9140589000,A
1274,"ANST02","Antoninek PKM",52.4097310900,17.0293978700,A
1762,"KOKSM01","Komorniki/Ks.Malinowskiego",52.3392363200,16.8004527700,B
4053,"TLZWI01","Trzcielin/Zwierzyniecka",52.3258560269,16.6884002170,C
1319,"BBJDW02","Babki/Jednostka Wojskowa",52.3116340400,16.9377460700,B
2183,"BOKAS01","Bolechowo-Os./Kasztanowa",52.5503955500,16.9733586200,C
286,"ZLWIE01","Złotniki/Wieś",52.4867062600,16.8311198800,B
1664,"GABA04","Garbary PKM",52.4167634300,16.9391277100,A
291,"ZLZLO02","Złotniki/Złotnicka",52.4856637100,16.8546857500,B
3611,"DETU02","Dębiec Tunel PKM",52.3698352000,16.9029113000,A
3837,"KCNOS01","Kicin/Nowe Osiedle",52.4679211589,17.0106463712,B
1349,"RYDZ02","Rydzowa",52.3340806100,16.9119561700,A
1004,"KOWA02","Kowalewicka",52.3686819800,16.8458259200,A
117,"FRRY41","Fredry",52.4093200000,16.9192700000,A
2782,"RODWO01","Rosnówko/Dworcowa",52.2976644188,16.7700243001,C
2240,"GWTAN02","Tanibórz/Wschód",52.3513575600,17.1469431400,B
2764,"SCTRZ01","Szczodrzykowo/Poznańska",52.2931570100,17.1068273600,C
3130,"DOWYZ02","Dopiewo/Wyzwolenia",52.3466068585,16.6903187002,C
3244,"KNSZM01","Konarzewo/Szmaragdowa",52.3451636375,16.7184318585,C
1930,"WYPKN02","Wysogotowo/Piękna",52.4059193300,16.7861267700,B
2239,"GWTOP02","Gowarzewo/Kaplica",52.3616530300,17.1230105000,B
3707,"BEPRZ02","Biskupice/Przylesie",52.4589660000,17.1670430000,C
3566,"WYSTO02","Wysogotowo/Stolarska",52.4071616000,16.7846613900,B
1611,"LUBI02","Lubieńska",52.4491936600,16.8853455800,A
550,"STGR02","Strzeszyn Grecki",52.4468104200,16.8741145500,A
401,"STOI01","Stoińskiego",52.4517639100,16.9276784100,A
1966,"SWAUC02","Swadzim/Auchan",52.4414867500,16.7626139200,B
2479,"SDSKA02","Swarzędz/Skansen",52.4043860000,17.0579910000,B
2327,"SRJED02","Śródka/I",52.2980830200,17.1284983900,B
2402,"GTDOZ01","Gortatowo/Dożynkowa",52.4245940000,17.1025960000,B
55,"LUSZ42","Lutycka Szpital",52.4397183900,16.9099956200,A
483,"WISE01","Wilczak/Serbska",52.4314715500,16.9517450500,A
2230,"GWJSN02","Gowarzewo/Jesienna",52.3553068900,17.1162356400,B
2049,"TPNOW02","Tarnowo Pdg/Nowa",52.4627828000,16.6558864200,C
2174,"TUZDB02","Tulce/Zadęby",52.3452274300,17.0917709200,B
364,"STRO02","Stróżyńskiego",52.4517175200,16.9038872100,A
1300,"BRPOD01","Borówiec/Pod Borem",52.2805952400,17.0269315300,B
3696,"WOPO05","Wojska Polskiego",52.4292337530,16.8971459512,A
424,"RUMA01","Rumiankowa",52.4750613500,16.9464343200,A
9,"SOLA41","Sołacz",52.4235161000,16.9034093800,A
1797,"RSROS03","Rosnowo/",52.3249722000,16.7811346500,C
2894,"KVWIA02","Krzyżowniki/Wiadukt",52.3109020000,17.1405273400,B
3251,"LITRZ01","Lisówki/Trzcielińska",52.3210430000,16.6490040000,C
448,"BURY01","Burysława",52.4587803100,16.9468127400,A
638,"LESK02","Leśnych Skrzatów",52.4120367500,16.8525645500,A
2984,"ZLPNL01","Złotniki/Park Nickel",52.4857280755,16.8500988391,B
477,"WLOD02","Włodarska",52.4354973500,16.9470342300,A
518,"TULO02","Tułodzieckiej",52.4519531800,16.8876748900,A
1968,"SAWIA02","Sady/Wiadukt",52.4487345900,16.7233684400,C
3926,"UNLU02","Unii Lubelskiej",52.3720359000,16.9498156900,A
3170,"ZARAD04","Zalasewo/Ukośna",52.3860877263,17.0742957421,B
3182,"OSTY01","Os. Tysiąclecia",52.3922694752,16.9714207677,A
400,"STOI04","Stoińskiego",52.4507071500,16.9287427700,A
165,"PLBE71","Pl. Bernardyński",52.4043220400,16.9370106900,A
384,"SZLI01","Szeligowskiego",52.4627051200,16.9179703700,A
1086,"SIEL71","Sielska",52.3840751200,16.8867624800,A
1465,"JEZY01","Jeżycka",52.4162073700,16.9058398300,A
312,"SLDZI01","Suchy Las/Teren Aktywnej Edukacji i Sportu",52.4866868400,16.8796299900,B
585,"REKR01","Rekreacyjna",52.4641255700,16.8004320300,A
504,"PIAT01","Piątkowska",52.4416282200,16.9125521600,A
3952,"RBNOW01","Robakowo/Nowina",52.2936729937,17.0730561068,B
2421,"BOPAL01","Bolechowo/Pałac",52.5442364500,16.9905190200,C
530,"STNZ02","Instytut Genetyki",52.4470874400,16.8979981600,A
50,"POLA42","Połabska",52.4348514000,16.9323765300,A
360,"LEGO02","Łęgowskiego",52.4609955600,16.8927830700,A
610,"WICH01","Wichrowa",52.4322530000,16.8100220200,A
3552,"WROB02","Wróblewskiego",52.3642313000,16.8842616000,A
2442,"SBCHM02","Sarbinowo/I (Chmielna)",52.4193430000,17.1554820000,C
3928,"ZLPAW03","Złotniki/Pawłowicka",52.4988987570,16.8376729707,B
1281,"MOGI02","Mogileńska",52.4096206000,16.9924945700,A
1263,"CHAR04","Chartowo",52.3957374800,16.9825005300,A
1700,"ROSK42","Rondo Skubiszewskiego",52.3898352000,16.8538765600,A
3007,"RETM01","Retmańska",52.4783993335,16.7708064509,A
3199,"DOKAS01","Dopiewo/Kasztanowa",52.3645349506,16.6709272619,C
928,"LUOKR02","Luboń/Okrzei",52.3462911580,16.8863581723,B
953,"WIWIR02","Wiry/Wirowska",52.3264065007,16.8442253288,B
191,"WSPO42","Wspólna",52.3772857100,16.9074117500,A
2625,"KDBRY02","Kórnik/Bnin Rynek",52.2308231300,17.0954243900,C
1524,"RODA01","Rodawska",52.3633881200,16.9964427400,A
4112,"GRMEC02","Gruszczyn/Mechowska",52.4293958088,17.0698094428,B
1021,"OSIA01","Ostatnia",52.3729464900,16.8648083500,A
1612,"DZIA01","Dziadoszańska",52.3771225000,16.9692176000,A
129,"MAGA42","Małe Garbary",52.4108894900,16.9372306700,A
1179,"JANZ02","Janikowska ",52.4317080300,17.0020624300,A
2443,"SBCHM01","Sarbinowo/I (Chmielna)",52.4193950000,17.1555470000,C
1561,"GOSP01","Gospodarska",52.3551389401,17.0291671133,A
2059,"RUKLU01","Rumianek/Świetlica",52.4594056800,16.6202422600,C
1112,"OZIM01","Ozimina",52.4280068400,16.9248374900,A
1719,"POGL42","Poznań Główny",52.4029387600,16.9149992700,A
2621,"KDPRO01","Kórnik/Prowent",52.2411298300,17.0898485800,C
1474,"INFL01","Inflancka",52.3854562500,16.9643812900,A
702,"ZKSWI02","Zakrzewo/Świerkowa",52.3987123100,16.7160926900,C
1516,"LOPA02","Łopawska",52.3692128700,16.9933133300,A
901,"LEDWO01","Łęczyca/Dworcowa",52.3158289853,16.8816209945,B
2473,"SDDDW01","Swarzędz/Działkowa II",52.4093760000,17.0570010000,B
3767,"WIDWR01","Wierzenica/Dwór",52.4606614200,17.0690272900,C
43,"PZEL42","Przełajowa",52.4251718300,16.9446484800,A
78,"DRZE41","Drzewieckiego",52.3968382200,16.8675472100,A
1191,"KZTDW02","Koziegłowy/Taczaka II",52.4433574000,17.0029086200,B
488,"SERB03","Serbska",52.4324866200,16.9455849500,A
1674,"LUNIE02","Luboń/Niepodległości",52.3489519922,16.8908887443,B
2178,"TUKRA02","Tulce/Krańcowa",52.3490441300,17.1013903300,B
140,"SWMI41","Św. Michała",52.4090145800,16.9623295000,A
2878,"GWBOR01","Gowarzewo/Borówkowa",52.3702308800,17.1486041600,B
1402,"FORT01","Forteczna",52.3678671100,16.9387037800,A
984,"LUSIK01","Luboń/Sikorskiego",52.3484378774,16.8733124863,B
1028,"LESZ02","Leszczyńska",52.3761717900,16.8790264700,A
2379,"BWKRE02","Bolechówko/Kręta",52.5180531200,16.9873820900,C
2148,"KXDZI02","Koninko/Dziennikarska",52.3090730000,17.0162780000,B
231,"RSTA45","Rondo Starołęka",52.3793126100,16.9426679000,A
3847,"COWSP02","Chomęcice/Wspólna",52.3293482600,16.7644016700,C
1972,"TPMAR01","Tarnowo Pdg/Marianowska",52.4549380500,16.7018251900,C
537,"DOZD01","Dojazd",52.4356658500,16.9032891000,A
2859,"PLPLD01","Plewiska/Południowa",52.3738839200,16.8201127600,B
1009,"CEDZ01","Cedzyńska",52.3675095800,16.8491513400,A
2793,"PUNAD02","Puszczykowo/Nadwarciańska",52.2660436900,16.8726870200,C
3595,"PPLES02","Pobiedziska/Letnisko Leśne",52.4749278713,17.2408643601,C
1725,"NIED01","Niedziałkowskiego",52.3983500500,16.9185236700,A
3382,"PLSTP03","Plewiska/Straż Pożarna",52.3655447676,16.8079955107,B
696,"DOKOS01","Dopiewo/Kościół",52.3579512700,16.6763361100,C
1246,"SDCEG02","Swarzędz/Os. Cegielskiego",52.4011580000,17.0591470000,B
1345,"CZLES02","Czapury/Leśna",52.3241389200,16.9116227200,B
2653,"ZMKOS02","Zaniemyśl/Kościół",52.1516619700,17.1655036300,D
3127,"KNPER01","Konarzewo/Perłowa",52.3406622893,16.6989813899,C
4153,"SKCYT01","Skórzewo/Cytrynowa",52.3985584710,16.7831290164,B
1388,"ZEGL02","Żeglarska",52.3569383400,16.9240614600,A
1630,"GLHE72","Głogowska/Hetmańska",52.3906050800,16.8948032700,A
3167,"ZATRA03","Zalasewo/Transportowa",52.3816446229,17.0658396583,B
3708,"JKMLY01","Jankowo/Młyn",52.4556560000,17.1636080000,C
3246,"GSWSP02","Gołuski/Wspólna",52.3599093333,16.7523004665,C
1683,"PONZ02","Polska",52.4204009500,16.8728458900,A
2629,"KDBLA01","Kórnik/Bnin Błażejewska",52.2275991800,17.0939653600,C
2743,"KKNZ02","Koszalińska",52.4689674800,16.8212195500,A
2440,"SBDZI01","Sarbinowo/Dzika",52.4238060000,17.1560950000,C
1326,"GLSZ01","Głuszyna Szkoła",52.3139840300,16.9648432500,A
800,"ZAME02","Zamek",52.4085773200,16.9176634700,A
2187,"BOPOL01","Bolechowo/Poligonowa",52.5428265900,16.9866620000,C
1218,"MILO01","Miłostowo",52.4102493000,17.0043568700,A
827,"DOWI02","Dolna Wilda",52.3696606600,16.9157519700,A
2304,"CEGAJ02","Czerwonak/Gajowa",52.4709255400,16.9953006700,B
2432,"LOSZK01","Łowęcin/Szkolna",52.4132010000,17.1163700000,C
3094,"LURZE01","Luboń/Rzeczna",52.3469947162,16.9015437050,B
1031,"RAKO02","Rakoniewicka",52.3779337800,16.8811918100,A
2237,"GWOSP01","Gowarzewo/OSP",52.3643857400,17.1246453700,B
367,"WRTV02","Wieża RTV",52.4573215300,16.9041604300,A
425,"RUMA02","Rumiankowa",52.4758266200,16.9462312300,A
775,"RYCE04","Rycerska",52.4040272400,16.8692931700,A
3376,"SIWIE02","Sierosław/Dworska ",52.4046070000,16.6753940000,C
525,"TRUS02","Truskawiecka",52.4428486200,16.8867695400,A
4246,"TPSLO01","Tarnowo Pdg/Słonecznikowa",52.4722340000,16.6639540000,C
2490,"SDDWO02","Swarzędz/Dworzec Kolejowy",52.4046330000,17.0750990000,B
2199,"OWLIP02","Owińska/Lipowa",52.5174170200,16.9852050500,C
617,"BUZA02","Bużańska",52.4234695100,16.8663402700,A
3657,"BOPKM01","Bolechowo-Os./PKM",52.5401473401,16.9784010952,C
187,"ROLN42","Rolna",52.3839405700,16.9183777900,A
2978,"KOWIS02","Komorniki/Wiśniowa",52.3476918200,16.8117238800,B
2877,"GWTRU02","Gowarzewo/Truskawkowa",52.3669086500,17.1422413300,B
1753,"GSSZK01","Gołuski/Szkolna",52.3580989700,16.7530514700,C
1739,"PLPOD02","Plewiska/Podgórna",52.3665765900,16.8247110000,B
4133,"SMIG01","Śmigi",52.3476261050,16.9662261054,A
2968,"OSSM02","Os. Śmiałego",52.4553900000,16.9185800000,A
3369,"LEDWO03","Łęczyca/Dworcowa",52.3162622437,16.8821227516,B
423,"WDNZ01","Widłakowa",52.4722248500,16.9474484300,A
3210,"WKGRO01","Więckowice/Gromadzka",52.3955110000,16.6379850000,C
598,"CZKA02","Człopska",52.4350790000,16.8155120000,A
407,"OSCH01","Os. Chrobrego",52.4523531300,16.9119273400,A
753,"KRAS02","Kraszewskiego",52.4086350800,16.9018666600,A
3126,"KNPER02","Konarzewo/Perłowa",52.3405540348,16.6991732382,C
869,"MODWK02","Mosina/Dworzec Kolejowy",52.2415089500,16.8516783400,C
1364,"TOMA02","Tomaszowska",52.3436345800,16.9344514300,A
2612,"GDWEZ02","Gądki/Węzeł",52.3108385300,17.0457805300,B
509,"LUSZ02","Lutycka Szpital",52.4403618500,16.9081700400,A
996,"SYCH02","Sycowska Centrum Handlowe",52.3547913800,16.8383158400,A
1942,"PMKRA02","Przeźmierowo/Krańcowa",52.4210581653,16.7876891035,B
1162,"CHEM04","Chemiczna",52.4269845400,16.9656891000,A
4032,"NIES04","Niestachowska",52.4198605125,16.8948290137,A
27,"KURP42","Kurpińskiego",52.4507481400,16.9194124100,A
1570,"TARC01","Tarczowa",52.3776350000,16.8953637300,A
3330,"GRDLI02","Góra/Długa I",52.4829605800,16.6444787000,C
133,"ROSR42","Rondo Śródka",52.4102429400,16.9556183400,A
3966,"PKDZI01","Pokrzywnica/Działki",52.3929780000,16.6844130000,C
1348,"RYDZ01","Rydzowa",52.3343571500,16.9119543700,A
86,"MODW71","Most Dworcowy",52.4040015200,16.9110290500,A
2170,"PRPLN02","Promnice/Północna",52.5413730300,16.9657950700,C
1000,"SYCO01","Sycowska I",52.3643997500,16.8389831500,A
2626,"KDBRY01","Kórnik/Bnin Rynek",52.2311874800,17.0964539200,C
795,"ALSO01","Aleje Solidarności",52.4362053000,16.9200216900,A
1377,"SAND02","Sandomierska",52.3520455744,16.9567517497,A
1256,"ZELA01","Żelazna",52.3919937600,16.9995177000,A
1957,"PMLES02","Przeźmierowo/Leśna",52.4310613477,16.7829814407,B
939,"LUZSK02","Luboń/Zespół Szkół",52.3481402292,16.8963490427,B
2474,"SDSTW01","Swarzędz/Stawna",52.4095010000,17.0618420000,B
2895,"KVWIA01","Krzyżowniki/Wiadukt",52.3109321500,17.1407804500,B
3212,"WKSZK01","Więckowice/Szkoła",52.3967070000,16.6378490000,C
792,"OPW02","Os. Powstańców W-wy",52.4354032800,16.9138770000,A
1192,"KZTDW01","Koziegłowy/Taczaka II",52.4437297100,17.0028496100,B
1997,"ZKINS01","Zakrzewo/Instytut",52.4060460100,16.7029056000,C
2127,"KXDRU02","Koninko/Drukarska",52.3197820000,17.0239600000,B
1904,"ZYPET01","Żydowo/Pętla",52.5472827900,16.7519406500,B
751,"SZYL02","Szylinga",52.4078811500,16.9000950500,A
1959,"PMWYS01","Przeźmierowo/Wysogotowska",52.4363947800,16.7726737900,B
2550,"ZATRA02","Zalasewo/Transportowa",52.3821030000,17.0672440000,B
991,"LUFAO01","Luboń/Factory Outlet",52.3542731803,16.8910363199,B
20,"NADW41","Nad Wierzbakiem",52.4214233900,16.9080444000,A
1329,"GLOS02","Głuszyna OSIR",52.3128791900,16.9689151300,A
2858,"PLPLD02","Plewiska/Południowa",52.3741747100,16.8203774300,B
3345,"PMSZK01","Przeźmierowo/Szkoła",52.4249430000,16.7809540000,B
4026,"SZYD01","Szydłowiecka",52.3580410000,16.9449630000,A
1360,"CZER01","Czernichowska ",52.3464601100,16.9196288900,A
2306,"KXZDB02","Komorniki gm.Kleszczewo/Zadęby",52.3419896800,17.1120038000,B
2948,"KICZE01","Kiekrz/Czereśniowa",52.4985931340,16.7506476194,B
60,"ZERO72","Żeromskiego",52.4155430100,16.8908253300,A
3921,"TADE41","Tadeuszak",52.3737400000,16.9523000000,A
3066,"WZSW91","Wzgórze Św.Wojciecha",52.4142860461,16.9309112562,A
422,"WDNZ02","Widłakowa",52.4725384800,16.9472832300,A
1074,"SCIE01","Ściegiennego",52.3900928200,16.8736985100,A
2039,"TPKAI01","Tarnowo Pdg/Karolewo I",52.4688476559,16.6838991601,C
3962,"PKLES01","Pokrzywnica/Leśna",52.3967565581,16.6721816548,C
15,"SLKA42","Słowiańska",52.4271177700,16.9192237100,A
673,"SKGIM02","Skórzewo/Kozierowskiego Szkoła",52.3907185500,16.7772333700,B
481,"WIML02","Wilczy Młyn",52.4372446300,16.9532701500,A
1118,"KORA01","Koronna",52.4293591700,16.9159165000,A
2224,"KZZON04","Koziegłowy/Żołnierzy Niezłomnych",52.4474612933,16.9847763626,B
515,"OBOR02","Obornicka",52.4461147400,16.9080676400,A
1453,"KLIN02","Klin",52.4185597700,16.9137508000,A
2654,"PSPLD02","Prusinowo/Południe",52.1921531300,17.1307352400,C
3223,"KOLAK01","Komorniki/Łąkowa ",52.3325514895,16.8128802642,B
917,"LUZER02","Luboń/Żeromskiego ",52.3401570994,16.8816357520,B
1742,"PLZCH01","Plewiska/Zachodnia",52.3694219400,16.8211310500,B
2016,"BNKLO02","Baranowo/Klonowa",52.4437623876,16.7858444080,B
2111,"GRPET02","Góra/Pętla",52.4854372400,16.6294331500,C
536,"WRSZ02","Wrzoska Szpitale",52.4379478400,16.9044367900,A
612,"TATR01","Tatrzańska",52.4295369100,16.8477457600,A
447,"BURY02","Burysława",52.4583754800,16.9466870000,A
2154,"KAPOL02","Kamionki/Polna",52.2860552600,16.9886908500,B
2181,"BOFAU02","Bolechowo-Os./Fabryka Autobusów",52.5460981400,16.9729352500,C
449,"BOWA02","Bogusława",52.4566334300,16.9480038300,A
2113,"BZZNO01","Brzezno/",52.4912558700,16.6223832000,C
2270,"SHCIN01","Szlachęcin/",52.5601540700,16.9808261900,C
3240,"KNSZK01","Konarzewo/Szkoła",52.3357995968,16.7184318585,C
2458,"SEMIO02","Siekierki Wielkie/Miodowa",52.3871070000,17.1599190000,C
893,"PUZRO02","Puszczykowo/Źródlana",52.2926917600,16.8614444000,C
2451,"PKWIO01","Paczkowo/Wiosenna",52.3993070000,17.1588010000,C
3248,"LIWIE01","Lisówki/Wieś",52.3213090000,16.6433730000,C
2125,"JRSKL01","Jaryszki/Składowa",52.3299460000,17.0161340000,B
1865,"MRSZA01","Mrowino/Szkoła",52.5136633700,16.6986138600,B
2392,"CEJAG01","Czerwonak/Jagiełły",52.4603589700,16.9877415900,B
1990,"LWGRZ01","Lusowo/Grzybowa",52.4190489600,16.7181421800,C
1462,"URBA02","Urbanowska",52.4217549800,16.9196918200,A
111,"SWCZ72","Św. Czesława",52.3975813800,16.9213722500,A
1248,"SDRAC02","Swarzędz/Os. Raczyńskiego",52.4000140000,17.0633630000,B
1055,"SJNZ01","Sempołowskiej",52.3628655300,16.8913227000,A
2337,"MAJED02","Markowice/I",52.3009852400,17.2180668600,B
2076,"LKDOP01","Lusówko/Dopiewska",52.4280784300,16.6457201500,C
1760,"KOTOP01","Komorniki/Topolowa",52.3403201000,16.7950742600,B
995,"SYCH01","Sycowska Centrum Handlowe",52.3541640000,16.8385760000,A
1722,"POGL74","Poznań Główny",52.4037704900,16.9165050900,A
1954,"PMWIA03","Przeźmierowo/Wiadukt",52.4363636444,16.7866855892,B
2025,"WLKE02","Wielkie",52.4650515927,16.7594136120,B
1484,"L II02","Os. Lecha II",52.3871198400,16.9711894800,A
1882,"NASTA01","Napachanie/Starzyńska",52.4892960000,16.7314650000,B
1012,"KOWI01","Kowalewicka Wiadukt",52.3610670800,16.8540189100,A
538,"DOZD02","Dojazd",52.4365693300,16.9011971400,A
2091,"CDBRZ02","Ceradz Dolny/Brzoza Huby",52.4246251400,16.5448342400,C
1787,"KNOSL02","Konarzewo/Os. 25-lecia",52.3345553200,16.7245063000,C
1373,"ROMI01","Rondo Minikowo",52.3549535600,16.9429748500,A
1339,"CZGLU02","Czapury/Głuszynka",52.3183083400,16.9129405900,B
81,"WEGO41","Węgorka",52.3920000000,16.8578300000,A
1238,"BORO01","Borówki",52.3896412700,17.0317914200,A
1331,"PASY01","Park Sypniewskiego",52.3115526900,16.9737851900,A
305,"SLKOS02","Suchy Las/Kościół",52.4723317000,16.8780680300,B
2391,"CEJAG02","Czerwonak/Jagiełły",52.4607517300,16.9866287400,B
2037,"TPKAW01","Tarnowo Pdg/Karolewo II",52.4720497675,16.6955133625,C
1006,"KRKA02","Krzepicka",52.3767922500,16.8417003600,A
592,"KRZY02","Krzyżowniki",52.4418361500,16.8074558100,A
626,"SZPI04","Szpitalna",52.4110533900,16.8777072800,A
321,"SZKL01","Szklarniowa",52.4775378300,16.9066457200,A
1838,"KISAN01","Kiekrz/Sanktuarium",52.4877368500,16.7763700000,B
655,"EDWA01","Edwardowo",52.4094642300,16.8473731400,A
3,"SOB41","Os. Sobieskiego",52.4639504200,16.9178214900,A
2481,"SDZUR02","Swarzędz/Armii Poznań/Żurawia",52.3951310000,17.0593320000,B
1752,"GSPET01","Gołuski/Pętla",52.3613408600,16.7570684300,C
832,"DENZ01","Dębina",52.3785911400,16.9269882600,A
2291,"WESZK01","Wierzonka/Szkoła",52.4876560000,17.0918870000,C
2463,"PKSZK02","Paczkowo/Szkoła",52.4020510000,17.1595310000,C
629,"SWOB02","Swoboda",52.4117809300,16.8724554100,A
2332,"SRTRZ02","Śródka/III",52.2968637400,17.1383730100,B
1297,"BRDSZ01","Borówiec/Deszczowa",52.2806415700,17.0382476200,B
1435,"MOST01","Mostowa",52.4048703800,16.9396370600,A
3209,"WKBLO02","Więckowice/Bloki",52.3900077404,16.6404086208,C
2293,"DEKAS02","Dębogóra/Kasztanowa",52.4913690400,17.0965076600,C
2177,"TUKRA01","Tulce/Krańcowa",52.3485934900,17.0994081500,B
749,"MATE01","Matejki",52.4048597900,16.8999455200,A
2917,"DEDAB01","Dębogóra/Dąbrówki",52.4986421100,17.0824978500,C
2204,"OWPAL02","Owińska/Pałac",52.5130679600,16.9753961500,C
456,"OLOK01","Os. Łokietka",52.4480726000,16.9437394000,A
1425,"DRDE02","Droga Dębińska",52.3870132300,16.9305828900,A
980,"LUPBO01","Luboń/Pl. Bojanowskiego",52.3493759069,16.8608866179,B
309,"SLSTR01","Suchy Las/Strażacka",52.4751292700,16.8836674700,B
595,"MIED02","Międzyzdrojska",52.4352223500,16.8088744400,A
3565,"WYDLU03","Wysogotowo/Długa",52.4102870100,16.7793864100,B
3093,"LURZE02","Luboń/Rzeczna",52.3466790183,16.9014699172,B
982,"LUUNI01","Luboń/Unijna",52.3520455744,16.8652253415,B
208,"ZIII42","Żegrze III",52.3833064700,16.9693135900,A
2493,"SDKUT01","Swarzędz/Kościuszki",52.4049440000,17.0804810000,B
1790,"COSRD01","Chomęcice/Środkowa",52.3315831300,16.7464038700,C
2100,"GRCIE01","Góra/Ciepła",52.4752718300,16.6427622100,C
2133,"SCNWO01","Szczytniki/Nad Wodą",52.3017780000,17.0161590000,B
506,"TROJ01","Trójpole",52.4382450600,16.9117682600,A
284,"ZLZIE01","Złotniki/Zielona",52.4920706700,16.8420290300,B
2038,"TPKAW02","Tarnowo Pdg/Karolewo II",52.4720947394,16.6960298772,C
611,"TATR02","Tatrzańska",52.4290282800,16.8485993900,A
2323,"ZNOSP01","Zimin/Świetlica OSP",52.2945833900,17.1582719500,B
1027,"LESZ01","Leszczyńska",52.3762098000,16.8788445100,A
1525,"RODA02","Rodawska",52.3630699200,16.9967864700,A
2233,"GWCZE02","Gowarzewo/Czereśniowa",52.3594012200,17.1306838900,B
3964,"PKDWR01","Pokrzywnica/Dworska",52.3902510402,16.6778633167,C
1265,"BLIZ01","Bliźniąt",52.3930785700,16.9808968800,A
762,"BRZA01","Brzask",52.4081418900,16.8754767800,A
169,"LAKO41","Łąkowa",52.4019500000,16.9342500000,A
1445,"URMA02","Urząd Marszałkowski",52.4155021600,16.9262979400,A
430,"LOPI02","Łopianowa",52.4867720900,16.9424779000,A
3853,"UZKOL02","Uzarzewo/ Przejazd Kolejowy",52.4558389312,17.1201474916,C
905,"LUKRE01","Luboń/Kręta",52.3204501904,16.8805584499,B
2740,"JNPOZ01","Jankowice/Poznańska",52.4435338100,16.6335564600,C
71,"RONJ74","Rondo Nowaka-Jeziorańskiego",52.4018848800,16.8891387700,A
888,"PURON03","Puszczykowo/Rondo Heigelmanna",52.2805694800,16.8514030200,C
3665,"DBROL02","Dąbrowa/Rolna",52.4104492511,16.7516806488,C
357,"SYPU02","Synów Pułku",52.4598768800,16.8743058000,A
3164,"MALW03","Malwowa",52.3979458289,16.8029336665,A
579,"KIKO02","Kiekrz Kościół",52.4773571300,16.7842541400,A
1286,"WOLK02","Wołkowyska",52.4003547200,16.9686933200,A
2407,"SDPOL02","Swarzędz/Polna",52.4083100000,17.0845070000,B
3615,"KOPOE01","Komorniki/Os. Poetów ",52.3224300000,16.8055100000,B
1264,"BLIZ02","Bliźniąt",52.3931962200,16.9805026000,A
1401,"STMA01","Starołęka Mała",52.3763782000,16.9399300500,A
1146,"ROSR02","Rondo Śródka",52.4104256300,16.9554669000,A
1309,"KALAK02","Kamionki/Łąkowa",52.2883077800,16.9818029200,B
2342,"WZKOS02","Wierzenica/Kościół",52.4626790000,17.0697680000,C
956,"WIBRZ01","Wiry/Brzoskwiniowa",52.3296370124,16.8363890627,B
1417,"SZII02","Os. Stare Żegrze",52.3806136000,16.9567160600,A
822,"KASZ01","Kasztanowa",52.3657825100,16.9038945200,A
4075,"SYPR02","Sycowska Prologis",52.3591100000,16.8345300000,A
1205,"KAIN01","Karolin PKM",52.4393610952,16.9822085465,A
2247,"KLSZO01","Kleszczewo/Szkoła I",52.3362711900,17.1665857800,B
1184,"JANI01","Janikowo",52.4364344700,17.0183890100,A
3930,"TADE01","Tadeuszak",52.3737100000,16.9524500000,A
1845,"RKGOL01","Rokietnica/Golęcińska",52.5052187500,16.7593708900,B
2408,"SDPOL01","Swarzędz/Polna",52.4084140000,17.0841950000,B
2041,"TPCZE02","Tarnowo Pdg/Czereśniowa",52.4664911900,16.6764292300,C
2972,"KOKLB01","Komorniki/Kolumba",52.3477701100,16.7964773100,B
1454,"KLIN01","Klin",52.4190371400,16.9135836600,A
1320,"BBJDW01","Babki/Jednostka Wojskowa",52.3115864386,16.9379506139,B
1750,"PLBOI01","Plewiska/Boisko",52.3683306607,16.8008823651,B
2890,"KLTOP01","Kleszczewo/Topolowa",52.3330312600,17.1786983000,B
1010,"CEDZ02","Cedzyńska",52.3670087900,16.8499730300,A
2397,"SDCZW01","Swarzędz/Os. Czwartaków",52.4174950000,17.0827340000,B
1823,"KICZY02","Kiekrz/Czysta",52.4834942500,16.7934179500,B
707,"DBBUK02","Dąbrowa/Szkolna",52.4037507600,16.7398011500,C
3723,"UMSZ02","Umultowo Szkoła",52.4717619468,16.9402823089,A
244,"CHRYN02","Chludowo/Rynek",52.5552510800,16.8493123200,C
154,"RRAT75","Rondo Rataje",52.3960300000,16.9490900000,A
1091,"SSKA01","Szymborska",52.3927756900,16.8897563700,A
522,"DRUS02","Druskienicka",52.4446149700,16.8877859600,A
1452,"ZERO06","Żeromskiego",52.4145537400,16.8907383800,A
3834,"MELES01","Mielno/Leśna",52.4937747968,17.0673301722,C
2296,"KFPET01","Karłowice/Pętla",52.4974480200,17.1066468200,C
1164,"CHEM02","Chemiczna",52.4272314800,16.9667300600,A
3201,"DOWJE02","Dopiewo/Więckowska I",52.3683036141,16.6661015387,C
4030,"SWWA02","Św. Wawrzyńca",52.4189780106,16.9012633113,A
1411,"OB I01","Os. Orła Białego I",52.3754060900,16.9651236900,A
2742,"BUDZ44","Budziszyńska",52.3882600000,16.8477980000,A
1247,"SDCEG01","Swarzędz/Os. Cegielskiego",52.4010720000,17.0590580000,B
2142,"BRDEB02","Borówiec/Dębowa",52.2906560000,17.0449730000,B
476,"LENA01","Lechicka/Naramowicka",52.4404879500,16.9469715200,A
1455,"SLAS01","Śląska",52.4242723400,16.9092110800,A
85,"BALT42","Bałtyk",52.4065000000,16.9110600000,A
1767,"PLSKO02","Plewiska/Szkolna",52.3572488300,16.8070922200,B
2144,"BRREK02","Borówiec/Rekreacyjna",52.2872070000,17.0463160000,B
688,"PAPAL01","Palędzie/Leśna",52.3690806300,16.7357758500,C
4235,"SEKOR02","Siekierki Wielkie/Kórnicka",52.3778680841,17.1664124528,C
2272,"KCROL02","Kicin/Rolna",52.4696196800,17.0257032400,B
2497,"UZPAL02","Uzarzewo/Pętla (Pałac)",52.4534340000,17.1237620000,C
3623,"KALI02","Kalinowa",52.3686642348,16.9037278244,A
708,"DBWIK01","Dąbrowa/Krótka",52.4008825100,16.7447766900,C
1600,"ZNTK01","ZNTK",52.3920746900,16.9133832500,A
2518,"RASAD01","Rabowice/Średzka",52.3877870000,17.0965760000,C
1843,"STPET01","Starzyny/Rynkowa",52.4929836760,16.7557832514,B
98,"GLHE46","Głogowska/Hetmańska",52.3902737400,16.8935651400,A
1421,"OBOH02","Os. Bohaterów II Wojny Światowej",52.3828974700,16.9475344600,A
937,"LUWPL02","Luboń/Wojska Polskiego",52.3434136688,16.8758212720,B
528,"STLI01","Strzeszyńska Lisner",52.4488588600,16.8952420300,A
644,"ZLOT01","Złotowska",52.4132556400,16.8323753400,A
3872,"BYTSK06","Bytyń/Szkolna",52.4873150000,16.5028590000,C
2862,"TRZE04","Trzebińska",52.3675406400,16.8408455400,A
498,"SUSZ02","Suszki",52.4460798400,16.9140549500,A
3666,"JRMAG01","Jaryszki/Składowa Magazyny",52.3349753200,17.0120519900,B
4040,"BLAZ42","Błażeja",52.4552270846,16.9446653053,A
1499,"ORGN02","Orle Gniazdo",52.3903790900,16.9764339100,A
1209,"GDYN02","Gdyńska",52.4303771340,16.9788880948,A
392,"OSBA04","Os. Batorego",52.4595441500,16.9266402500,A
770,"OPAL02","Opalenicka",52.4047812700,16.8875152200,A
1105,"POLW01","Półwiejska",52.4002463500,16.9264945900,A
209,"OCZ71","Os. Czecha",52.3861726200,16.9754798600,A
758,"BUKO02","Bukowska",52.4092553900,16.8881746500,A
274,"ZOWIE02","Złotkowo/Wieś",52.5115741800,16.8391927100,B
2075,"LKBOS02","Lusówko/Bosmańska",52.4346758500,16.6448749500,C
641,"FOED01","Folwark Edwardowo",52.4125853000,16.8465094400,A
1754,"GSSZK02","Gołuski/Szkolna",52.3579649800,16.7528569100,C
250,"CHPKM01","Chludowo/PKM",52.5599405900,16.8271220300,C
3610,"DETU01","Dębiec Tunel PKM",52.3695534000,16.9041467000,A
2664,"KDMOD01","Kórnik/Modrzewiowa",52.2422387500,17.0962690000,C
627,"SZPI03","Szpitalna",52.4108285900,16.8803452600,A
759,"GROD01","Grodziska",52.4100725300,16.8858516400,A
1855,"RKSZK02","Rokietnica/Szkoła",52.5098583400,16.7401864200,B
650,"WIEC02","Wieczorynki",52.4083118100,16.8410443600,A
443,"BIJDW02","Biedrusko/Jednostka Wojskowa",52.5403913300,16.9447178600,B
3224,"KOWID02","Komorniki/Widokowa",52.3303769288,16.8183995929,B
567,"INTP02","Instytut Technologiczno-Przyrodniczy",52.4560162000,16.8556986500,A
2649,"LKLKK02","Łękno/",52.1635325700,17.1545223800,D
2206,"OWOGR02","Owińska/Gospodarstwo Ogrodnicze",52.5030195600,16.9760676800,C
2275,"KYTRA02","Kliny/Trakt",52.4762967800,17.0353960600,C
246,"CHTYS01","Chludowo/Tysiąclecia",52.5593526200,16.8384256000,C
2795,"PTWIE02","Potasze/Wierzbowa",52.5236871600,17.0254049900,C
2516,"RASTL01","Rabowice/Świetlica",52.3896690000,17.1179860000,C
257,"ZIPOG02","Zielątkowo/Pogodna",52.5598768500,16.8048330200,C
3632,"LUPRZ03","Luboń/Przemysłowa",52.3539575344,16.8930876212,B
1068,"TREB01","Trębacka",52.3872766500,16.8676496600,A
1139,"KATE01","Katedra",52.4100161100,16.9481008200,A
679,"DKLAS01","Dąbrówka/Las",52.3865919900,16.7458051000,C
3222,"KOLAK02","Komorniki/Łąkowa ",52.3322627573,16.8136328999,B
4110,"CMNA03","Cmentarna",52.3843574025,16.8406982712,A
1315,"DAPIO02","Daszewice/Piotrowska",52.2991004200,16.9583337300,B
774,"RYCE02","Rycerska",52.4039720100,16.8666057200,A
686,"PANOW01","Palędzie/Nowa",52.3723335300,16.7379570600,C
2197,"OWKSP03","Owińska/Ks. Piotrowskiego",52.5165575700,16.9751442200,C
1432,"MORO01","Most Św. Rocha",52.4022680400,16.9406147500,A
1953,"BNPRZ02","Baranowo/Przemysława",52.4339241270,16.7961599449,B
608,"LEKA01","Leśnowolska",52.4319771100,16.8222369900,A
728,"ROSK02","Rondo Skubiszewskiego",52.3904582944,16.8552492287,A
938,"LUZSK01","Luboń/Zespół Szkół",52.3487445431,16.8969688604,B
1538,"KRNY01","Krzesiny",52.3411015200,16.9877945500,A
1976,"BTSKO01","Batorowo/Skośna",52.4205433700,16.7682026400,C
1224,"ZIEM02","Ziemowita",52.4030322400,17.0199875800,A
941,"LUDEB01","Luboń/Dębiecka",52.3531999753,16.9016322504,B
2032,"NAKOB01","Napachanie/Kobylnicka",52.4844692373,16.7284227289,B
14,"BONN41","Bonin",52.4303010700,16.9108599400,A
4020,"RYCE03","Rycerska",52.4047400000,16.8650610000,A
2524,"ZAOSE02","Zalasewo/Os. Europejskie",52.3926970000,17.0911840000,B
2435,"LOLIP01","Łowęcin/Lipowa",52.4139550000,17.1214930000,C
3131,"DOWYZ01","Dopiewo/Wyzwolenia",52.3468413775,16.6900383065,C
1811,"KOJEZ01","Komorniki/Jeziorna",52.3313424108,16.8031550299,B
503,"PIAT02","Piątkowska",52.4414305600,16.9122533500,A
2646,"JMJMM01","Jeziory Małe/",52.1674859700,17.1476164200,D
173,"AWF73","AWF",52.3990100000,16.9360200000,A
251,"CHPKM02","Chludowo/PKM",52.5600370600,16.8263996400,C
783,"WOPO01","Wojska Polskiego",52.4284195100,16.9006102000,A
4165,"WIMO02","Wilków Morskich",52.4779766571,16.7811219878,A
597,"CZKA01","Człopska",52.4351845000,16.8156774100,A
1390,"DZIE02","Dziedzicka",52.3543038500,16.9228102900,A
698,"ZKZAC02","Zakrzewo/Zacisze",52.3900401000,16.7384438100,C
2869,"TRLIP02","Trzek/Lipowa",52.3567844700,17.1704771500,B
2378,"BWKRE01","Bolechówko/Kręta",52.5180795000,16.9872088100,C
163,"PP71","Politechnika",52.4005864300,16.9487672600,A
11,"UP41","Uniwersytet Przyrodniczy",52.4263916700,16.9059923800,A
1693,"KRAS42","Kraszewskiego",52.4089536100,16.9033531800,A
1254,"PRZM02","Os. Przemysława",52.3916630400,17.0083528900,A
633,"KLRA01","Kolorowa",52.4120368300,16.8635587600,A
1107,"OPL03","Os. Pod Lipami",52.4309114800,16.9347196000,A
1382,"SWAK01","Św. Antoniego Kościół",52.3639227300,16.9327687900,A
1803,"SZNOW01","Szreniawa/Nowa",52.3136806826,16.7900207985,C
3728,"SARN02","Sarnia",52.4101300000,17.0440530000,A
1501,"PK02","Piaśnicka/Kurlandzka",52.3845809800,16.9868047300,A
791,"SWLE01","Św. Leonarda",52.4340309600,16.9134424000,A
2074,"LKBOS01","Lusówko/Bosmańska",52.4346932400,16.6447847100,C
3225,"KOWID01","Komorniki/Widokowa",52.3298355277,16.8197868038,B
2212,"CEOPP01","Czerwonak/Os. Przylesie PKM",52.4805430700,16.9785901400,B
1097,"WYSP02","Wyspiańskiego",52.3974319100,16.8996306400,A
1317,"DALES02","Daszewice/Leśna",52.3019869700,16.9538963400,B
740,"GROC03","Grochowska",52.3997552200,16.8760196800,A
1018,"URAD02","Uradzka",52.3554451100,16.8599709100,A
215,"PK41","Piaśnicka/Kurlandzka",52.3850783790,16.9874179664,A
527,"SZKA01","Szczawnicka",52.4387452000,16.8902098900,A
1275,"ANST01","Antoninek PKM",52.4095374000,17.0288256500,A
2494,"SOSN02","Sośnicka",52.4059490000,17.0422430000,A
2121,"TUOSP02","Tulce/Przylesie",52.3459140900,17.0628576400,B
642,"KOPC02","Kopciuszka",52.4126148200,16.8391197900,A
127,"PLWI41","Pl. Wielkopolski",52.4103158800,16.9310187000,A
107,"KOSI71","Kosińskiego",52.3893013500,16.9182392900,A
2746,"RRAT06","Rondo Rataje",52.3962661800,16.9492635400,A
971,"LUTRA02","Luboń/Traugutta",52.3442255186,16.8479147197,B
1013,"TYNZ02","Tyniecka ",52.3621900300,16.8580446400,A
2770,"DHCIS01","Dachowa/Cisowa",52.2918668007,17.0796674952,B
3335,"LKSTO01","Lusówko/Storczyka",52.4170450000,16.6410790000,C
1877,"RKTRA02","Rokietnica/Trakt Napoleoński",52.5129754200,16.7314301600,B
116,"WIER41","Wierzbięcice",52.4019271300,16.9205211600,A
3769,"SDWWN01","Swarzędz/Warzywna",52.3953870600,17.0769963800,B
1963,"SWKLA01","Swadzim/Kładka",52.4415025500,16.7475773700,B
4177,"WORD02","WORD",52.4329698879,16.9543167517,A
1687,"MT46","Most Teatralny",52.4116333700,16.9144439600,A
4042,"JROL42","Jasna Rola",52.4514838382,16.9449456990,A
1313,"DALIP02","Daszewice/Lipowa",52.2927155600,16.9679685700,B
705,"ZKBUK02","Zakrzewo/Bukowska",52.4062222900,16.7194696000,C
741,"GROC04","Grochowska",52.3998923500,16.8763777500,A
1330,"PASY02","Park Sypniewskiego",52.3115176300,16.9742998800,A
1531,"STRA01","Strzyżowska",52.3551592000,16.9806085400,A
1046,"OKUL02","Okulickiego",52.3593689100,16.8813093200,A
168,"PLWL42","Pl. Wiosny Ludów",52.4051500000,16.9314500000,A
453,"BRON02","Bronisza",52.4535140500,16.9477138700,A
684,"DKKAS01","Dąbrówka/Kasztanowa",52.3774399400,16.7428272300,C
2568,"MGLES02","M. Goślina/Leśna",52.5654680500,16.9909090100,C
1905,"ZYPET03","Żydowo/Pętla",52.5470043500,16.7510458300,B
2752,"RBSKO04","Robakowo/Szkolna Rondo",52.3099004400,17.0669290300,B
1314,"DAPET01","Daszewice/Pętla",52.2957547000,16.9627815600,B
1410,"SARB02","Sarbinowska",52.3744328800,16.9643234200,A
3102,"MGPOZ02","M. Goślina/Poznańska",52.5730662799,17.0095838266,C
1434,"GROL02","Grobla",52.4067775400,16.9376870900,A
2622,"KDPRO02","Kórnik/Prowent",52.2414215300,17.0896092300,C
1473,"INFL02","Inflancka",52.3855053400,16.9630183400,A
2634,"BJMJE01","Błażejewo/Mikołajczyka I",52.2170749100,17.0983473500,C
558,"KONT02","Kontryma",52.4458905100,16.8570232100,A
695,"DOKOS02","Dopiewo/Kościół",52.3581242100,16.6767218800,C
1550,"CHRZ02","Chrzanowska",52.3468959600,17.0057443500,A
2478,"SDSKA01","Swarzędz/Skansen",52.4046070000,17.0583900000,B
1092,"SSKA02","Szymborska",52.3930640200,16.8885300600,A
833,"HEWI02","Hetmańska Wiadukt",52.3821631100,16.9286317900,A
561,"STST04","Stary Strzeszyn",52.4518608100,16.8488594500,A
370,"OSMA02","Os. Marysieńki",52.4619896300,16.9035075400,A
1216,"LOMZ01","Łomżyńska",52.4095850100,16.9847628200,A
500,"WLOA02","Włościańska",52.4441993600,16.9133433500,A
2151,"KXPIS01","Koninko/Pisarska",52.3068920832,17.0139077927,B
737,"DRZE02","Drzewieckiego",52.3965305400,16.8671192400,A
3848,"COWSP01","Chomęcice/Wspólna",52.3292490000,16.7648296400,C
469,"ESTO02","Estońska",52.4425768100,16.9375356900,A
2780,"GLSTW01","Głuchowo/Stawna",52.3460476160,16.7705408148,C
1847,"RKROL01","Rokietnica/Rolna",52.5076521200,16.7554776000,B
4213,"ROBO92","Robocza",52.3900527960,16.9116083633,A
2551,"ZATRA01","Zalasewo/Transportowa",52.3823110000,17.0672580000,B
2509,"JSRDW01","Jasin/Rabowicka I",52.4005070000,17.0927200000,B
2469,"SGSOK02","Sokolniki Gwiazdowskie/Sokolnicka",52.4092140000,17.1671160000,C
1282,"BAKA02","Baraniaka",52.4041324800,16.9544573600,A
3585,"SZPKM01","Szreniawa/PKM",52.3164608200,16.7985359100,C
1071,"JUGO01","Jugosłowiańska",52.3911291500,16.8659712900,A
689,"DPDOP02","Dopiewiec/",52.3599654400,16.7087657600,C
1415,"OBII01","Os. Orła Białego II",52.3760766600,16.9603524000,A
1961,"SWWIA01","Swadzim/Wiadukt",52.4410449100,16.7532104500,B
1589,"IPNZ01","IPN",52.3798476600,16.9145805300,A
1081,"CZNZ02","Częstochowska",52.3841299200,16.8825392400,A
51,"POLA41","Połabska",52.4352225400,16.9319816600,A
2149,"KXDZI01","Koninko/Dziennikarska",52.3091129364,17.0163132755,B
3116,"ZKBUK04","Zakrzewo/Bukowska",52.4040466300,16.7171878100,C
1079,"KORD04","Kordeckiego",52.3872202000,16.8804214000,A
1378,"PINC01","Pińczowska",52.3596976400,16.9407934400,A
2394,"KCPRO02","Kicin/Prosta",52.4629105400,17.0078276800,B
2168,"CZSTA02","Czapury/Stacja Energetyczna",52.3312441200,16.9111392100,B
4103,"ZEGL03","Żeglarska",52.3567080866,16.9247130796,A
1999,"SIKSZ02","Sierosław/Kasztanowa",52.4035058900,16.6744881500,C
181,"ORZE41","Os. Rzeczypospolitej",52.3853846900,16.9448386200,A
745,"RONJ02","Rondo Nowaka-Jeziorańskiego",52.4029096200,16.8910959200,A
211,"OSLE41","Os. Lecha",52.3898114100,16.9776571100,A
2545,"ZASPA02","Zalasewo/Spacerowa",52.3810760000,17.0721880000,B
3711,"PRSOS01","Promnice/Sosnowa",52.5446193700,16.9658866800,C
970,"LUTRA01","Luboń/Traugutta",52.3446494786,16.8511171109,B
1163,"CHEM01","Chemiczna",52.4277794700,16.9658169700,A
1206,"KAIN02","Karolin PKM",52.4393700962,16.9820019407,A
2021,"CYJOD02","Chyby/Jodłowa",52.4571165834,16.7658331521,B
802,"RKAP06","Rondo Kaponiera",52.4066642200,16.9133768600,A
631,"BUPO02","Bułgarska/Polska",52.4117817500,16.8691817400,A
2289,"WEPET04","Wierzonka/Pętla",52.4777490000,17.0949170000,C
513,"STKA01","Strzeszyńska",52.4437867700,16.9033139800,A
320,"SZKL02","Szklarniowa",52.4771069700,16.9062235400,A
1820,"PWSZK02","Pawłowice/Pętla",52.4952270100,16.7968397700,B
1577,"KOLE02","Kolejowa",52.3871161600,16.9022027100,A
1785,"KNPET02","Konarzewo/Pętla",52.3347636800,16.7172029700,C
2290,"WESZK02","Wierzonka/Szkoła",52.4874200000,17.0920900000,C
3181,"OSTY02","Os. Tysiąclecia",52.3921703578,16.9718634946,A
1001,"SYCO02","Sycowska I",52.3643397200,16.8390925000,A
142,"TERM42","Termalna",52.4091574800,16.9721856000,A
56,"PIAT41","Piątkowska",52.4415302943,16.9112689393,A
1716,"DWZA02","Dworzec Zachodni",52.4009897700,16.9097960300,A
1257,"ZELA02","Żelazna",52.3923997500,16.9985012200,A
2359,"GRKAT02","Gruszczyn/Katarzyńska",52.4308812925,17.0726724101,B
1450,"ZERO01","Żeromskiego",52.4160765800,16.8921595300,A
1267,"KURL01","Kurlandzka",52.3921056100,16.9821322500,A
2360,"SDKOS01","Swarzędz/Os. Kościuszkowców",52.4210660000,17.0809150000,B
2496,"UZPAL01","Uzarzewo/Pętla (Pałac)",52.4533680000,17.1235590000,C
69,"RONJ73","Rondo Nowaka-Jeziorańskiego",52.4033902600,16.8889925700,A
395,"OSBP02","Os. Batorego Pływalnia",52.4564226900,16.9273779300,A
1934,"WYZBO02","Wysogotowo/Zbożowa",52.4170901100,16.7751749500,B
1835,"KZDZI02","Koziegłowy/Działki",52.4505777400,17.0051675000,B
223,"OSTY42","Os. Tysiąclecia",52.3923968200,16.9720870200,A
704,"ZKBUK01","Zakrzewo/Bukowska",52.4049495700,16.7180501200,C
959,"KOGRA02","Komorniki/Granica",52.3361604829,16.8253061326,B
1285,"KATO02","Katowicka",52.4024540000,16.9622540300,A
969,"LUTRA03","Luboń/Traugutta",52.3441533548,16.8489477491,B
562,"STST01","Stary Strzeszyn",52.4521424700,16.8480803100,A
1491,"OSLE01","Os. Lecha",52.3891528400,16.9793217100,A
884,"PULIB03","Puszczykowo/Libelta",52.2731169000,16.8588530600,C
819,"LOZO02","Łozowa",52.3677300000,16.9081100000,A
3961,"GSSTA01","Gołuski/Starowiejska",52.3548954469,16.7507214072,C
523,"DRUS01","Druskienicka",52.4447947700,16.8880587000,A
166,"PLBE72","Pl. Bernardyński",52.4044339000,16.9367738700,A
614,"PILO01","Pilotów",52.4277183200,16.8544813100,A
3747,"DHWIA02","Dachowa/Wiatrakowa",52.3022397800,17.0878213600,B
1698,"BUDZ41","Budziszyńska",52.3885462000,16.8497230600,A
2559,"GAMTU01","Garby Małe/Tulecka",52.3614000000,17.0752240000,C
2644,"JWJWW01","Jeziory Wielkie/",52.1828968600,17.1324146300,D
1157,"GLOW02","Główna",52.4220824000,16.9741896800,A
240,"MORO72","Most Św. Rocha",52.4027711600,16.9422831200,A
750,"MATE42","Matejki",52.4052269000,16.8994038000,A
2817,"TERM03","Termalna",52.4086748457,16.9724242820,A
2870,"GWTRZ02","Gowarzewo/Trzecka",52.3606316000,17.1377200300,B
2194,"OWKSP01","Owińska/Ks. Piotrowskiego",52.5170894900,16.9744112600,C
2157,"TULES04","Tulce/Leśna",52.3445240000,17.0738600000,B
3910,"CZ I91","Os. Czecha I",52.3823295930,16.9835957575,A
112,"SWCZ71","Św. Czesława",52.3965130000,16.9212750700,A
3336,"LKSTO02","Lusówko/Storczyka",52.4178300000,16.6409860000,C
2256,"BLSTB01","Bylin/Stacja benzynowa",52.3276985700,17.1606968700,B
2377,"TZWIE02","Trzaskowo/Wieś",52.5339625800,17.0202455900,C
1610,"LUBI01","Lubieńska",52.4483935200,16.8863468000,A
2871,"GWTRZ01","Gowarzewo/Trzecka",52.3607087300,17.1375000900,B
3920,"UNLU42","Unii Lubelskiej",52.3725317100,16.9500370600,A
97,"GLHE45","Głogowska/Hetmańska",52.3903874400,16.8935347900,A
1033,"PRCZ02","Przełęcz",52.3772577500,16.8886370600,A
2202,"OWPAR02","Owińska/Parkowa",52.5109763300,16.9777942100,C
2560,"GAMPE01","Garby Małe/Pętla",52.3617000000,17.0696770000,C
177,"WIOS71","Wioślarska",52.3930049600,16.9486688200,A
1268,"ZIEL01","Zieliniec",52.4150040000,17.0446980000,A
2755,"RBSZE02","Robakowo/Szeroka",52.3068938600,17.0756328800,B
559,"KONT01","Kontryma",52.4461675800,16.8570144500,A
1437,"SOLN02","Solna",52.4119990900,16.9289280900,A
1563,"SZWO02","Szczepankowo",52.3647935200,17.0093752800,A
1650,"PANZ02","Porzeczkowa",52.3623172300,17.0144106500,A
1994,"ZKBUK03","Zakrzewo/Bukowska",52.4060262400,16.7173872600,C
1929,"WYPKN01","Wysogotowo/Piękna",52.4054125200,16.7865839100,B
989,"LUPSZ01","Luboń/Puszkina",52.3527129661,16.8827720844,B
1193,"KZTJE01","Koziegłowy/Taczaka I",52.4476466600,17.0011361900,B
1776,"KOWI02","Kowalewicka Wiadukt",52.3623529459,16.8536996845,A
3733,"KOKRY01","Komorniki/Kryształowa",52.3477960000,16.7829080000,B
2468,"PKALT01","Paczkowo/Altanowa",52.4065470000,17.1656140000,C
196,"STMA42","Starołęka Mała",52.3760523200,16.9399538100,A
1232,"KOBY02","Kobylepole",52.3909074600,17.0175220300,A
4159,"SLPOZ03","Suchy Las/Os. Poziomkowe",52.4692060000,16.8736460000,B
1041,"BOWE02","Bohaterów Westerplatte",52.3710210800,16.8856858500,A
721,"KWIA02","Os. Kwiatowe",52.3831046778,16.8314895516,A
416,"ORP02","UAM Os. Różany Potok",52.4666531500,16.9417878300,A
1255,"PRZM01","Os. Przemysława",52.3915536400,17.0092621300,A
2663,"KDMOD02","Kórnik/Modrzewiowa",52.2416504400,17.0960991100,C
4210,"JUST02","Junikowo PKM",52.3775800000,16.8235800000,A
2308,"KXTAN01","Tanibórz/Zachód",52.3453565400,17.1136235800,B
62,"PONA72","Polna",52.4142414300,16.8966975400,A
2329,"SRDWA02","Śródka/II",52.2976939200,17.1316682700,B
1945,"PMKOS01","Przeźmierowo/Kościelna",52.4268560000,16.7850630000,B
2376,"PRKLO02","Promnice/Klonowa",52.5521857400,16.9619850700,C
3250,"PADWR01","Palędzie/Dworzec Kolejowy",52.3744788387,16.7444051700,C
1244,"SDPRZ01","Swarzędz/Przybylskiego",52.4011260698,17.0557454849,B
2553,"GAAKA02","Garby Wielkie/Akacjowa",52.3754400000,17.0713100000,C
1576,"KOLE01","Kolejowa",52.3873329300,16.9028153600,A
2667,"KDSZK01","Kórnik/Szkoła nr 1",52.2522737000,17.0911085600,C
1609,"KART02","Kartuska",52.4526561500,16.8812256300,A
3712,"PRSOS02","Promnice/Sosnowa",52.5449785500,16.9656800800,C
375,"WIET01","Wietrzna",52.4687448900,16.9009097300,A
1252,"ZAGIM01","Zalasewo/Planetarna Szkoła",52.3918170000,17.0687190000,B
1622,"CMEN02","Gnieźnieńska Cmentarz",52.4255898600,16.9946559500,A
1466,"JEZY02","Jeżycka",52.4165408700,16.9067347000,A
1379,"PINC02","Pińczowska",52.3594570600,16.9410790900,A
891,"PUWIO01","Puszczykowo/Wiosenna",52.2888808000,16.8582297600,C
3638,"ZEKA01","Żelazka",52.3912332366,16.9276941074,A
1327,"GLSZ02","Głuszyna Szkoła",52.3143230900,16.9643235200,A
2000,"SIKSZ01","Sierosław/Kasztanowa",52.4036464500,16.6764207800,C
2009,"LWSZK01","Lusowo/Szkoła",52.4334365700,16.7019049900,C
2262,"KXBYL01","Komorniki gm.Kleszczewo/Bylin",52.3263061100,17.1250476100,B
1562,"SZWO01","Szczepankowo",52.3645901000,17.0093816800,A
2250,"KLPOL02","Kleszczewo/Polna",52.3324482300,17.1909185500,B
660,"LAWI02","Ławica",52.4097276800,16.8237694700,A
2097,"TPZIE02","Tarnowo Pdg/Zielona",52.4676634200,16.6570464800,C
1604,"NIED02","Niedziałkowskiego",52.3985267800,16.9186741700,A
782,"WOPO04","Wojska Polskiego",52.4276261200,16.9002674800,A
2503,"WZMEH02","Wierzenica/Mechowo",52.4408510000,17.0543450000,B
342,"SZSZ01","Szarych Szeregów",52.4600260500,16.8821202800,A
1328,"GLOS01","Głuszyna OSIR",52.3127100000,16.9691963300,A
1799,"WABRZ01","Walerianowo/Brzozowa",52.3186800000,16.7734400000,C
2581,"MGPKM02","M. Goślina/PKM",52.5752468369,17.0153687915,C
6,"MT73","Most Teatralny",52.4103354900,16.9143484000,A
434,"RADO02","Radojewo",52.4967973400,16.9459751900,A
4079,"OGDY12","Ogrody",52.4162943761,16.8814143886,A
3157,"JAII02","Jasielska II",52.4440150000,16.8937310000,A
1426,"BIEL01","Bielniki",52.3947216700,16.9334032600,A
3331,"CDPOW02","Ceradz Dolny/Powstańców Wielkopolskich",52.4299404600,16.5831017300,C
2229,"GWJSN01","Gowarzewo/Jesienna",52.3550930000,17.1156019700,B
410,"OSSM01","Os. Śmiałego",52.4546900000,16.9191800000,A
3545,"OKEI01","Okrzei",52.3615329000,16.8853534000,A
730,"WEGO02","Węgorka",52.3919368500,16.8578373700,A
1677,"STST03","Stary Strzeszyn",52.4521938300,16.8490985500,A
2818,"TERM04","Termalna",52.4086928603,16.9727637060,A
1615,"CZ I01","Os. Czecha I",52.3829141900,16.9832447700,A
40,"MURA41","Murawa",52.4269504200,16.9359653500,A
1456,"SLAS02","Śląska",52.4246233300,16.9078521100,A
1931,"WYDLU01","Wysogotowo/Długa",52.4098584800,16.7798581200,B
2162,"TUKRO02","Tulce/Krótka",52.3426690000,17.0762610000,B
4129,"LEZI01","Leśniczówka Zieliniec",52.4217425200,17.0641868100,A
44,"PZEL41","Przełajowa",52.4252848000,16.9449347600,A
108,"KOSI72","Kosińskiego",52.3894310200,16.9183820800,A
1964,"SWKLA02","Swadzim/Kładka",52.4411957800,16.7470674700,B
4069,"DPPOL01","Dopiewiec/Polarna",52.3724710000,16.7133200000,C
2404,"GTSWI01","Gortatowo/Świetlica",52.4261090000,17.1100170000,B
1342,"CZWAR01","Czapury/Warta",52.3088408300,16.9101880500,B
2482,"SDARM01","Swarzędz/Armii Poznań/Szkoła",52.3954310000,17.0683300000,B
2405,"SDGRU02","Swarzędz/Cieszkowskiego",52.4118990000,17.0850860000,B
1735,"PLWOL02","Plewiska/Wołczyńska",52.3758730300,16.8227527000,B
72,"WOJS41","Wojskowa",52.4034107400,16.8924793200,A
2200,"OWPKM02","Owińska/PKM",52.5120028900,16.9868849400,C
1066,"KAZA02","Kacza Zajezdnia",52.3819875700,16.8615552500,A
333,"SLJAG02","Suchy Las/Os. Jagodowe",52.4716052000,16.8673430300,B
2744,"KKNZ01","Koszalińska",52.4690057600,16.8213839100,A
4222,"KASTO02","Kamionki/Stokrotkowa",52.2904669500,16.9747117000,B
2537,"SDOKR02","Swarzędz/Okrężna",52.3968150000,17.0774930000,B
1512,"FRWO01","Franowo",52.3818772300,17.0006787300,A
2552,"ZAOSL01","Zalasewo/Os. Leśne",52.3835170000,17.0601140000,B
1460,"OSSL01","Os. Słowiańskie",52.4251895000,16.9173173100,A
102,"AREN42","Arena",52.3977717600,16.8884247200,A
468,"UMUL04","Umultowska",52.4430685600,16.9303892100,A
2615,"SYJEZ01","Skrzynki/Jeziorna",52.2669041600,17.0701069100,C
1824,"KICZY01","Kiekrz/Czysta",52.4823980400,16.7916687200,B
1178,"BGPET02","Bogucin/Pętla",52.4322230000,17.0194340000,B
3631,"LUPRZ04","Luboń/Przemysłowa",52.3536509049,16.8930285910,B
2652,"ZMRYN02","Zaniemyśl/Rynek",52.1571402000,17.1595303900,D
4016,"LENA41","Lechicka/Naramowicka",52.4404052043,16.9463329099,A
275,"ZOWIE01","Złotkowo/Wieś",52.5114700600,16.8395369200,B
4154,"SKCYT02","Skórzewo/Cytrynowa",52.3981079997,16.7836602887,B
1903,"ZYPET02","Żydowo/Pętla",52.5472268800,16.7512925000,B
2147,"KAKLO01","Kamionki/Klonowa",52.2923635111,16.9813673654,B
2350,"XOLES02","Kobylnica/Leśna",52.4532800000,17.0961290000,B
354,"STRS01","Strzeszyn PKM",52.4621111700,16.8666883700,A
446,"MAPO01","Maków Polnych",52.4635751200,16.9479684100,A
1054,"BEDZ01","Będzińska",52.3610973600,16.8890791300,A
961,"KOPAK01","Komorniki/Os. Parkowe",52.3370085536,16.8290102810,B
4241,"TPTER01","Tarnowo Pdg/Termy",52.4633371900,16.6441703000,C
531,"STNZ01","Instytut Genetyki",52.4464244500,16.8992914600,A
919,"LUDWA02","Luboń/Dworcowa",52.3400127584,16.8901508661,B
1924,"ZOLIP01","Złotkowo/Lipowa",52.5080628500,16.8348496000,B
3870,"GWOSI01","Gaj Wielki/Osiedlowa",52.4564090000,16.5787980000,C
1874,"MRGNI02","Mrowino/Gniewka",52.5153794900,16.7185506800,B
137,"ROSR46","Rondo Śródka",52.4099513800,16.9581012000,A
2316,"KEKOS01","Krerowo/Kościół",52.2893378900,17.1930879600,B
2269,"SHCIN02","Szlachęcin/",52.5599308500,16.9803190500,C
2975,"KOKSW03","Komorniki/Ks.Wawrzyniaka",52.3473430700,16.8053317900,B
1352,"STWI01","Starołęka Wielka",52.3416937300,16.9186579400,A
3594,"PPLES01","Pobiedziska/Letnisko Leśne",52.4747390015,17.2382079987,C
584,"KIEK02","Kiekrz",52.4737051100,16.7744947100,A
1236,"DARZ02","Darzybór",52.3881598900,17.0291029000,A
285,"ZLZIE02","Złotniki/Zielona",52.4916171612,16.8410081800,B
4209,"KOMAL01","Komorniki/Malinowa",52.3469100000,16.8171300000,B
2412,"KINZ02","Krzesinki",52.3402860700,17.0127481600,A
1145,"ROSR03","Rondo Śródka",52.4109266900,16.9578971000,A
3672,"SLWY01","Sielawy",52.4473173028,16.9473954545,A
3606,"KLIM02","Klimontowska",52.3393090891,16.9209056282,A
1344,"WRPET02","Wiórek/Pętla",52.3035467500,16.9075839000,B
2282,"MELAK02","Mielno/Łąkowa",52.4916912000,17.0673597200,C
1461,"OSSL02","Os. Słowiańskie",52.4260718300,16.9178796000,A
3986,"RRAT71","Rondo Rataje",52.3946000000,16.9498000000,A
486,"SERB02","Serbska",52.4313397800,16.9459041100,A
658,"PLL01","Port Lotniczy Ławica",52.4135124100,16.8260674400,A
868,"MODWK01","Mosina/Dworzec Kolejowy",52.2413403700,16.8514785900,C
2465,"PKFOL02","Paczkowo/Folwarczna",52.4026180000,17.1636700000,C
3876,"ROPKM01","Rosnówko/PKM",52.2968607445,16.7681943622,C
1795,"RSROS02","Rosnowo/",52.3256300000,16.7803300000,C
1100,"PALM01","Palmiarnia",52.4021375600,16.8996216400,A
1121,"WYLO02","Wyłom",52.4323742400,16.9199042200,A
3694,"WOPO08","Wojska Polskiego",52.4283784487,16.8972787692,A
547,"HEZJ02","Hezjoda",52.4447774100,16.8739612700,A
1048,"SWIE02","Świerczewo",52.3569836900,16.8848954300,A
2022,"CYJOD01","Chyby/Jodłowa",52.4575304627,16.7652723647,B
624,"SZPI01","Szpitalna",52.4118975000,16.8772228500,A
327,"SLSPR02","Suchy Las/Sprzeczna",52.4746265600,16.8936914100,B
1343,"WRPOD02","Wiórek/Podleśna",52.3064890000,16.9088725700,B
2485,"SDGER02","Swarzędz/Orla/Geremka",52.3975530000,17.0594230000,B
2976,"KOKSW04","Komorniki/Ks.Wawrzyniaka",52.3474319100,16.8046777600,B
2523,"ZAOSE01","Zalasewo/Os. Europejskie",52.3925200000,17.0914510000,B
1689,"GORC41","Górczyn PKM",52.3814366000,16.8810077200,A
691,"DPPRZ02","Dopiewiec/Przejazd Kolejowy",52.3594442900,16.6898690500,C
2273,"KCROL01","Kicin/Rolna",52.4698016800,17.0257464600,B
1235,"SCDZ01","Schronisko Dla Zwierząt",52.3891428700,17.0253662300,A
2231,"GWKAS01","Gowarzewo/Al. Kasztanowa",52.3576135500,17.1236874800,B
3766,"RASTR01","Rabowice/Świerkowe Tarasy",52.3871871700,17.1055079900,C
3630,"LUJPA03","Luboń/Jana Pawła II",52.3455515078,16.8825064483,B
1758,"GLTEC02","Głuchowo/Tęczowa",52.3448569470,16.7769308398,C
90,"PAWI71","Park Wilsona",52.3982419000,16.9031573100,A
683,"DKKAS02","Dąbrówka/Kasztanowa",52.3777388800,16.7432324600,C
3110,"KASZK01","Kamionki/Szkoła",52.2777488660,16.9918157203,B
3651,"JKJAN01","Jankowo/",52.4446623933,17.1689359962,C
232,"RSTA46","Rondo Starołęka",52.3795324100,16.9429377900,A
784,"WIKL02","Witosa Kładka",52.4304664700,16.9023393800,A
1128,"WIGR01","Winogrady",52.4237505100,16.9488417000,A
816,"DEEC01","Dębiec PKM",52.3708661600,16.9011792500,A
4118,"KWNY01","Kurcewiczówny",52.3915305945,16.8390306665,A
2393,"KCPRO01","Kicin/Prosta",52.4628655600,17.0081375900,B
3560,"WYSKO01","Wysogotowo/Skórzewska ",52.4022850200,16.7964778700,B
630,"BUPO01","Bułgarska/Polska",52.4123649800,16.8684411400,A
143,"TERM41","Termalna",52.4090358700,16.9722628600,A
1511,"SZCH02","Szwajcarska Centrum Handlowe",52.3847915600,16.9970639400,A
1520,"LUGA02","Ługańska",52.3714685400,16.9954669000,A
1196,"KZKRO02","Koziegłowy/Krótka",52.4473263022,16.9966414435,B
2267,"KXRSP01","Komorniki gm.Kleszczewo/RSP",52.3326259500,17.1111493900,B
2167,"TUKOS02","Tulce/Kościół",52.3420812100,17.0813603600,B
3556,"DELES01","Dębogóra/Leśna",52.4973436532,17.0924032724,C
821,"KASZ02","Kasztanowa",52.3653554286,16.9040082181,A
2334,"KVPET02","Krzyżowniki/Pętla",52.3035846700,17.1285840500,B
1042,"KOZM02","Koźmińska",52.3690193500,16.8768203300,A
73,"OSTR42","Ostroroga",52.4003363100,16.8815419200,A
2762,"DHKLO02","Dachowa/Klonowa",52.2967024000,17.0977384600,B
4127,"GARA01","Garaszewo",52.3509542771,16.9628466234,A
1049,"SWIE01","Świerczewo",52.3570526700,16.8839986500,A
798,"OSZW01","Os. Zwycięstwa",52.4359415400,16.9255473300,A
2400,"GTCME02","Gortatowo/Cmentarz",52.4206920000,17.0957450000,B
1015,"LERC01","Lerczakówny",52.3637491100,16.8526988000,A
920,"LUDWA01","Luboń/Dworcowa",52.3400759076,16.8889555035,B
3090,"POGL06","Poznań Główny",52.4007600000,16.9160500000,A
1423,"INFL03","Inflancka",52.3844724600,16.9625515300,A
879,"PUMAJ01","Puszczykowo/3 Maja",52.2720650500,16.8685220900,C
2850,"SWRZ01","Świerzawska",52.4053330052,16.8620524654,A
773,"RYCE01","Rycerska",52.4047114500,16.8673799500,A
700,"ZKSPO02","Zakrzewo/Sportowa",52.3928255100,16.7267028700,C
1789,"COSZK02","Chomęcice/Szkoła",52.3336077300,16.7408126300,C
2411,"PJNZ02","Podjaryszki",52.3377552600,17.0152323100,A
2278,"KYCME01","Kliny/Cmentarz Ewangelicki",52.4855072300,17.0566298700,C
676,"DBWIL02","Dąbrowa/Leśna",52.3971100000,16.7568900000,C
1581,"PROM02","Promienista",52.3961334600,16.8811480700,A
4031,"SWWA01","Św. Wawrzyńca",52.4190950782,16.9006730088,A
4238,"BUDZ91","Budziszyńska",52.3878900749,16.8474129625,A
1717,"ULAN02","Ułańska",52.3992367700,16.8944296200,A
3744,"KDBWI01","Kórnik/Bnin Witosa",52.2265947600,17.0917649000,C
2668,"DZPOL02","Dziećmierowo/Polna",52.2591888000,17.0961217700,C
2949,"RDWA03","Rdestowa",52.4897021710,16.9405774602,A
39,"MURA42","Murawa",52.4268984600,16.9358033000,A
3653,"BFGLO01","Biskupice/Główna",52.4626316564,17.1689064810,C
372,"WIED02","Wiedeńska",52.4654699400,16.9047405300,A
2094,"GBWIE02","Grzebienisko/Wierzbowa",52.4330965400,16.5304299400,C
986,"LUOLU03","Luboń/Os. Lubonianka",52.3486272888,16.8813701159,B
2447,"PKSAR02","Paczkowo/1 (Sarbinowska)",52.4053690000,17.1575780000,C
1011,"FABI01","Fabianowo",52.3653535900,16.8558235000,A
1122,"KSMI02","Księcia Mieszka I",52.4292671700,16.9199519400,A
738,"GROC01","Grochowska",52.3989882300,16.8755711400,A
1135,"MAGA03","Małe Garbary",52.4106331000,16.9393766600,A
1337,"CZGRO01","Czapury/Gromadzka",52.3198030600,16.9223207600,B
470,"ESTO01","Estońska",52.4428183200,16.9362230400,A
1165,"SMNA01","Smolna",52.4235503300,16.9651920800,A
440,"BIJES01","Biedrusko/Jesionowa",52.5359212500,16.9434691900,B
2457,"PKPOL02","Paczkowo/Polna",52.3927610000,17.1569530000,C
2427,"SDSPR01","Swarzędz/Sporna",52.4090690000,17.0917050000,B
2043,"TPKRO01","Tarnowo Pdg/Krótka",52.4603064100,16.6802829900,C
2643,"JWJWW02","Jeziory Wielkie/",52.1830491400,17.1330170100,D
1141,"ROSR30","Rondo Śródka",52.4094390300,16.9544934700,A
2254,"KLSTR01","Kleszczewo/Baza ZK",52.3333725613,17.1635642431,B
781,"WOPO03","Wojska Polskiego",52.4284803500,16.8973601200,A
1984,"BTBRZ01","Batorowo/Brzask",52.4227555400,16.7322823100,C
3381,"WTWIT02","Witkowice/Gorgoszewo Skrzyżowanie ",52.4830160000,16.5223720000,C
1703,"CMNA42","Cmentarna",52.3850653100,16.8391843000,A
711,"MANZ01","Malwowa I",52.3931377300,16.8080027600,A
2079,"LKGRA02","Lusówko/Grabowa",52.4331928100,16.6396758300,C
2307,"KXZDB01","Komorniki gm.Kleszczewo/Zadęby",52.3418204500,17.1119935500,B
1846,"RKROL02","Rokietnica/Rolna",52.5074927200,16.7553704500,B
1458,"NADW02","Nad Wierzbakiem",52.4207392100,16.9086202400,A
910,"LUKOS02","Luboń/Kościół",52.3305032547,16.8772379981,B
701,"ZKSPO01","Zakrzewo/Sportowa",52.3933213600,16.7258674700,C
1906,"PCPET02","Przecław/Pętla",52.5512198700,16.7136125900,C
1375,"RAKA02","Radomska",52.3542823200,16.9487158300,A
1507,"SSZP04","Szwajcarska Szpital",52.3897853700,16.9940265500,A
298,"SLKON02","Suchy Las/Konwaliowa",52.4780036366,16.8696378530,B
1515,"TORW03","Torowa Wiadukt",52.3698336300,16.9881491600,A
21,"KLIN42","Klin",52.4186542100,16.9140014500,A
1241,"ZNAS01","Żywiczna Nastawnia",52.3950817300,17.0380620300,A
1883,"NAPAR01","Napachanie/Park",52.4863940000,16.7282120000,B
1987,"BTZAK02","Batorowo/Zakrzewska",52.4241047600,16.7197069900,C
2868,"TRLIP01","Trzek/Lipowa",52.3567172500,17.1706833300,B
3338,"WYBAT02","Wysogotowo/Batorowska",52.4129286600,16.7673969800,B
1404,"OKOP02","Okopowa",52.3669557100,16.9432286600,A
1522,"WIEP02","Wieprawska",52.3688244000,17.0009231700,A
2193,"BOPRZ01","Bolechowo/Przejazd",52.5339703100,16.9800908000,C
3313,"RKAP46","Rondo Kaponiera",52.4077040000,16.9135160000,A
2071,"LKADM02","Lusówko/Admiralska",52.4424291400,16.6338952500,C
1242,"SDSZU02","Swarzędz/Szumana",52.3986846022,17.0462711292,B
1340,"CZSZK01","Czapury/Szkoła",52.3139351800,16.9117426500,B
1,"FRWO41","Franowo",52.3814339100,17.0003228700,A
1595,"PAMI72","Pamiątkowa",52.3871448400,16.9166088200,A
3938,"UNLU03","Unii Lubelskiej",52.3719006700,16.9501403600,A
1861,"PBKOL01","Przybroda/Kolejowa",52.5205957900,16.6629599100,B
2431,"JSTUL01","Jasin/Tulipanowa",52.4094130000,17.1062430000,B
175,"SERA72","Serafitek",52.3969309500,16.9457055500,A
958,"KOJAL01","Komorniki/Jałowcowa",52.3335710600,16.8307074008,B
12,"UP42","Uniwersytet Przyrodniczy",52.4269057500,16.9062196600,A
2020,"CYCDR01","Chyby/Cedrowa",52.4525366584,16.7739202968,B
2505,"JSCEH01","Jasin/Centrum Handlowe ETC",52.4053580000,17.0960320000,B
214,"PIAR42","Piaśnicka Rynek",52.3877999592,16.9820609709,A
2279,"KYCME02","Kliny/Cmentarz Ewangelicki",52.4863213700,17.0574692900,C
2129,"KXWEZ02","Koninko/Węzeł",52.3239480000,17.0382464300,B
1912,"RKTOP02","Rokietnica/Topolowa",52.5146909600,16.7651400500,B
1298,"BRDSZ02","Borówiec/Deszczowa",52.2806034900,17.0379864300,B
2258,"BLWIE01","Bylin/Wieś",52.3313253500,17.1334375400,B
387,"SZYM01","Szymanowskiego",52.4605915400,16.9170346000,A
91,"PAWI72","Park Wilsona",52.3971074100,16.9020603600,A
1527,"URSZ01","Urszulanek",52.3668445200,16.9833820900,A
1407,"WARO01","Warowna",52.3676391000,16.9482142200,A
3333,"LKKOS02","Lusówko/Kościół ",52.4259260000,16.6453150000,C
249,"CHWAR01","Chludowo/Wargowska",52.5600632600,16.8342824400,C
1418,"OAK01","Os. Armii Krajowej",52.3815993700,16.9517949900,A
1599,"ZNTK02","ZNTK",52.3922926000,16.9138117600,A
1372,"ROMI02","Rondo Minikowo",52.3559338200,16.9431014900,A
1025,"SMIE02","Śmiełowska",52.3732651000,16.8767426500,A
4046,"NARA72","Naramowice",52.4455803801,16.9451523049,A
201,"RZEG42","Rondo Żegrze",52.3765200000,16.9547300000,A
3204,"FIALK01","Fiałkowo/",52.3749565938,16.6571141826,C
1307,"KAPET01","Kamionki/Pętla",52.2862400377,16.9945311120,B
147,"LOMZ41","Łomżyńska",52.4095056700,16.9853441700,A
992,"LUFAO02","Luboń/Factory Outlet",52.3542551434,16.8917889556,B
3925,"FALI02","Falista",52.3692700000,16.9493800000,A
2235,"GWAKA02","Gowarzewo/Akacjowa",52.3622413400,17.1301941700,B
1306,"KALOT01","Kamionki/Lotnicza",52.2851072300,16.9993703300,B
3559,"WYSKO02","Wysogotowo/Skórzewska ",52.4023791700,16.7961648100,B
1276,"ZOO02","Nowe Zoo",52.4003671000,16.9928965800,A
1636,"REMO01","Rezerwat Morasko",52.4878970700,16.8976977800,A
1747,"PLSTP01","Plewiska/Straż Pożarna",52.3653270100,16.8079950400,B
3616,"KOPOE02","Komorniki/Os. Poetów ",52.3235908903,16.8052506039,B
613,"PILO02","Pilotów",52.4270388700,16.8561400300,A
574,"CHKA01","Chojnicka",52.4686961400,16.8013452100,A
3624,"LUWPL03","Luboń/Wojska Polskiego",52.3430708833,16.8759245750,B
761,"BRZA02","Brzask",52.4072244300,16.8755343500,A
565,"KRAJ01","Krajenecka",52.4549867000,16.8429271500,A
1616,"FRWO02","Franowo",52.3814452700,17.0014651600,A
669,"SKKOS01","Skórzewo/Kościół",52.3906024707,16.7898141926,B
1468,"OJAG02","Os. Jagiellońskie",52.3940101100,16.9564066300,A
3857,"DEWIA01","Dębogóra/Wiązowa",52.4990156122,17.0756829531,C
828,"PINZ01","Piastowska",52.3719934300,16.9168280900,A
1691,"UE71","Uniwersytet Ekonomiczny",52.4060300000,16.9169800000,A
2106,"KHPET01","Kokoszczyn/Pętla",52.4977356600,16.6537804700,C
2321,"ZNNWS02","Zimin/Nowy Świat",52.2921395800,17.1716425200,B
2058,"RUKLU02","Rumianek/Świetlica",52.4592018400,16.6202433400,C
551,"STGR01","Strzeszyn Grecki",52.4468834300,16.8742949400,A
2210,"CEELE01","Czerwonak/Elewator",52.4859394900,16.9779277700,B
2437,"LOSAR02","Łowęcin/Sarbinowska",52.4187450000,17.1333030000,C
3705,"TRWYD01","Trzek/Wydzierżewice",52.3473915902,17.1711053580,B
1003,"TRZE02","Trzebińska",52.3681974400,16.8424564600,A
1825,"TURY01","Turystyczna",52.4824683200,16.7805179400,A
3983,"WILC03","Wilczak",52.4281443625,16.9461853343,A
1266,"KURL02","Kurlandzka",52.3917866300,16.9838163500,A
2143,"BRREK01","Borówiec/Rekreacyjna",52.2868180000,17.0463060000,B
1405,"OKOP01","Okopowa",52.3668706800,16.9442475200,A
1793,"COJES01","Chomęcice/Jesionowa",52.3307600000,16.7579400000,C
2069,"JNPRZ01","Jankowice/Przemysłowa",52.4550848200,16.6408302800,C
308,"SLSTR02","Suchy Las/Strażacka",52.4750086700,16.8851559500,B
1356,"OZAR01","Ożarowska",52.3322557400,16.9327928300,A
346,"BIAL03","Białczańska",52.4578877600,16.8781556200,A
4109,"ROSK04","Rondo Skubiszewskiego",52.3908547782,16.8534635635,A
957,"KOJAL02","Komorniki/Jałowcowa",52.3341394829,16.8299252499,B
1444,"URMA01","Urząd Marszałkowski",52.4152812800,16.9267934100,A
189,"HCP41","HCP",52.3824324900,16.9119498800,A
3567,"WYSTO01","Wysogotowo/Stolarska",52.4077117100,16.7840276900,B
1080,"KORD01","Kordeckiego",52.3876049300,16.8786796700,A
790,"KORA02","Koronna",52.4314124533,16.9146484213,A
1682,"HEWI04","Hetmańska Wiadukt",52.3827155400,16.9280438000,A
1506,"RUSA02","Os. Rusa",52.3886043400,16.9913986800,A
454,"RUBI01","Rubież",52.4507910400,16.9479123400,A
1618,"RJEZ71","Rynek Jeżycki",52.4122357000,16.9039574100,A
902,"LEDWO02","Łęczyca/Dworcowa",52.3147187411,16.8810011768,B
272,"ZOSOB02","Złotkowo/Sobocka",52.5131390900,16.8354751900,B
1168,"HLDA02","Hlonda",52.4195008600,16.9604096200,A
649,"OBA01","Os. Bajkowe",52.4105728500,16.8345881400,A
2001,"SIPRO02","Sierosław/Prosta",52.4021933200,16.6670028300,C
2741,"BUDZ43","Budziszyńska",52.3884800000,16.8481800000,A
3178,"WIAT02","Wiatraczna",52.3903952171,16.9667426201,A
4237,"PVPOL04","Pólko/",52.5223085543,16.4575328952,C
4227,"LUKRE03","Luboń/Kręta",52.3207751007,16.8810749646,B
1878,"RKTRA01","Rokietnica/Trakt Napoleoński",52.5131591300,16.7310942900,B
1198,"KZPLY01","Koziegłowy/Pływalnia",52.4481182441,16.9922879623,B
1152,"STUD02","Studzienna",52.4195420100,16.9646698600,A
1397,"STAR01","Starołęka PKM",52.3688410000,16.9319550600,A
3070,"SCSZC02","Szczytniki/Szczelinka",52.2939981006,17.0046548005,B
1101,"KONZ02","Konopnickiej",52.4033702600,16.8997856100,A
886,"PUPSK01","Puszczykowo/Piaskowa",52.2782809600,16.8540977900,C
2182,"BOFAU01","Bolechowo-Os./Fabryka Autobusów",52.5462731500,16.9728438900,C
717,"GERB02","Gerberowa",52.3853953000,16.8246529000,A
651,"WIEC01","Wieczorynki",52.4086173800,16.8403438400,A
578,"KIDW01","Kiekrz PKM",52.4753158800,16.7893756500,A
622,"OGDY06","Ogrody",52.4166818200,16.8851557900,A
3730,"GWAKA01","Gowarzewo/Akacjowa",52.3609733583,17.1320568452,B
404,"KURP01","Kurpińskiego",52.4509611200,16.9194839200,A
2201,"OWPKM01","Owińska/PKM",52.5119126300,16.9871035600,C
1592,"ROLN01","Rolna",52.3830106300,16.9168849600,A
1764,"KOKSW01","Komorniki/Ks.Wawrzyniaka",52.3471480900,16.8034285300,B
402,"KURP06","Kurpińskiego",52.4506116000,16.9217926900,A
3551,"WROB01","Wróblewskiego",52.3640766000,16.8840697000,A
909,"LUKOS01","Luboń/Kościół",52.3308280912,16.8772084830,B
942,"LUPSI02","Luboń/Park Siewcy",52.3320913216,16.8890588064,B
803,"RKAP05","Rondo Kaponiera",52.4070300000,16.9132234300,A
261,"ZISWI01","Zielątkowo/Świerkowa",52.5544832400,16.7979004100,C
1325,"DASZ02","Daszewicka",52.3181933900,16.9540910700,A
3922,"TADE42","Tadeuszak",52.3740500000,16.9527600000,A
4158,"SKOGR02","Skórzewo/Ogrodowa",52.3948284298,16.7875710430,B
2756,"RBSZE01","Robakowo/Szeroka",52.3073130000,17.0746050700,B
278,"ZOZYT02","Złotkowo/Żytnia",52.5012182000,16.8372413600,B
121,"MRCI72","Aleje Marcinkowskiego",52.4073055900,16.9288885500,A
771,"OGNI02","Ognik",52.4077237900,16.8676297000,A
517,"RZEP01","Rzepeckiej",52.4552832200,16.8824574500,A
837,"RSTA01","Rondo Starołęka",52.3814707300,16.9430293300,A
2536,"SDPRO01","Swarzędz/Zielona",52.3967190000,17.0759180000,B
1259,"DYMK02","Dymka",52.3940191500,16.9903327900,A
2380,"BWJOD01","Bolechówko/Jodłowa",52.5189715800,16.9948169500,C
4128,"SMIG02","Śmigi",52.3482665045,16.9651192881,A
2751,"RBSKO02","Robakowo/Szkolna Rondo",52.3093387000,17.0695154800,B
259,"ZIOSP01","Zielątkowo/OSP",52.5605177300,16.7978700900,C
1710,"ZAME41","Zamek",52.4073400000,16.9181100000,A
110,"ROZA41","Różana",52.3965092000,16.9245683000,A
2544,"ZASPA01","Zalasewo/Spacerowa",52.3826220000,17.0734990000,B
106,"TRAU43","Traugutta",52.3847652100,16.9151159000,A
491,"ROSO02","Rondo Solidarności",52.4338715700,16.9373713900,A
2103,"GRDLII02","Góra/Długa II",52.4865941200,16.6479876800,C
3864,"FRWO03","Franowo",52.3808700000,17.0005200000,A
260,"ZISWI02","Zielątkowo/Świerkowa",52.5538325900,16.7978270700,C
2880,"SEMAL02","Siekierki Wielkie/Malinowa",52.3753524600,17.1601498400,C
587,"STOB02","Stobnicka",52.4534762600,16.8012951900,A
1185,"JAASF02","Janikowo/Asfaltowa",52.4404412077,17.0272191149,B
726,"BUDZ02","Budziszyńska",52.3882810900,16.8492768200,A
417,"UAMG02","UAM Wydział Geografii",52.4653034743,16.9416104897,A
3578,"KOKSW05","Komorniki/Ks.Wawrzyniaka",52.3477530000,16.8016140000,B
960,"KOGRA01","Komorniki/Granica",52.3362958144,16.8237565884,B
2401,"GTCME01","Gortatowo/Cmentarz",52.4206330000,17.0955250000,B
3584,"JUST01","Junikowo PKM",52.3776000000,16.8236000000,A
1619,"RJEZ72","Rynek Jeżycki",52.4120324500,16.9035799100,A
1459,"MACZ02","Maczka",52.4237774900,16.9142029800,A
1751,"PLENE02","Plewiska/Stacja Energetyczna",52.3711354000,16.7810500900,B
2310,"LPLIP01","Lipowiec/",52.3182178400,17.1838974100,B
3175,"OJAG03","Os. Jagiellońskie",52.3941706845,16.9588473237,A
1891,"RKBOC01","Rokietnica/Boczna",52.5184315700,16.7457890700,B
3573,"KBKIE02","Kobylniki/Kierska",52.4725444550,16.7520348303,B
1098,"WYSP01","Wyspiańskiego",52.3983249400,16.9001994500,A
3835,"MWOGR02","Miękowo/Ogrodowa",52.4973885992,16.9832120609,C
3010,"UNRU01","Unruga",52.4781924923,16.7646673046,A
575,"NJEZ02","Nad Jeziorem",52.4728173700,16.7949431100,A
1237,"DARZ01","Darzybór",52.3883460100,17.0297466500,A
735,"STMI02","Stadion Miejski",52.3949161200,16.8630307900,A
1529,"SANT02","Sanocka",52.3613348000,16.9797234700,A
975,"LUKLL01","Luboń/Kołłątaja",52.3424755128,16.8615211931,B
3655,"BFSTA02","Biskupice/Stacja",52.4666168338,17.1698214500,C
2045,"TPROL01","Tarnowo Pdg/Rolna",52.4627846300,16.6713136300,C
415,"UAMK01","UAM Kampus",52.4640625100,16.9305030700,A
3677,"SARB01","Sarbinowska",52.3744067243,16.9640715011,A
1555,"SPKA01","Spławska",52.3574831700,16.9996995800,A
3955,"DEDAB02","Dębogóra/Dąbrówki",52.4985212224,17.0828698864,C
2249,"KLPOL01","Kleszczewo/Polna",52.3323756600,17.1913852400,B
7,"POZN41","Poznańska",52.4133151800,16.9151929400,A
269,"GOPKM01","Golęczewo/PKM",52.5352214100,16.8254695100,C
572,"PSPK01","Psarskie Przejazd Kolejowy",52.4714238200,16.8019574200,A
2584,"PDPAR02","Przebędowo/Park",52.5861815200,17.0140179600,C
1395,"STAR02","Starołęka PKM",52.3687683500,16.9327245900,A
4009,"RBNOW02","Robakowo/Nowina",52.2939258548,17.0725543496,B
2345,"XOSTA02","Kobylnica/Węzeł",52.4457810000,17.0763050000,B
167,"PLWL41","Pl. Wiosny Ludów",52.4050400000,16.9317400000,A
131,"KATE41","Katedra",52.4100296800,16.9473154100,A
188,"ROLN41","Rolna",52.3840706900,16.9181281100,A
473,"LENA02","Lechicka/Naramowicka",52.4400103500,16.9469135500,A
2255,"KLSTR02","Kleszczewo/Baza ZK",52.3337428200,17.1638608200,B
2160,"BBBBK02","Babki/Babicka",52.3136355491,16.9382457652,B
656,"PLL04","Port Lotniczy Ławica",52.4146372853,16.8267376162,A
323,"DESZ01","Deszczowa",52.4719328406,16.9023406135,A
2624,"KDBIE01","Kórnik/Bnin Armii Krajowej",52.2354522900,17.0942403900,C
1854,"RKSZK01","Rokietnica/Szkoła",52.5100238900,16.7401691700,B
1718,"ULAN01","Ułańska",52.3991892000,16.8941675000,A
2044,"TPROL02","Tarnowo Pdg/Rolna",52.4622162200,16.6728974400,C
296,"ZLGRZ01","Złotniki/Os. Grzybowe",52.4801889181,16.8593813464,B
640,"FOED02","Folwark Edwardowo",52.4123307300,16.8463949300,A
2219,"CESZK02","Czerwonak/Szkolna",52.4643364200,16.9817766500,B
2977,"KOWIS01","Komorniki/Wiśniowa",52.3478051800,16.8116992600,B
237,"RSTA48","Rondo Starołęka",52.3797589900,16.9443395900,A
492,"ROSO01","Rondo Solidarności",52.4356201400,16.9392529900,A
2647,"JWDOL01","Jeziory Wielkie/Doliwiec Leśny",52.1739889900,17.1405794000,D
426,"DUNZ01","Dziurawcowa",52.4789199600,16.9455025000,A
926,"LUSTR01","Luboń/Streicha",52.3480951309,16.8904902901,B
2444,"SBDOB02","Sarbinowo/II (Dobrepole)",52.4146250000,17.1549560000,C
3238,"KNCME02","Konarzewo/Cmentarz",52.3331360000,16.7040110000,C
4074,"SYPR01","Sycowska Prologis",52.3591100000,16.8344200000,A
235,"RSTA44","Rondo Starołęka",52.3803896900,16.9422208600,A
2260,"NGOZD02","Nagradowice/Ośrodek Zdrowia",52.3206873800,17.1474324600,B
496,"WIKT02","Wiktoria",52.4390781600,16.9303707900,A
3198,"DOKAS02","Dopiewo/Kasztanowa",52.3641111813,16.6714732918,C
1857,"RKKAL02","Rokietnica/Os. Kalinowe",52.5042358400,16.7433414100,B
1399,"BYST01","Bystra",52.3712076400,16.9343372100,A
3426,"PPDWO30","Pobiedziska/Dworzec",52.4794874815,17.2769318451,C
3203,"DOWDW02","Dopiewo/Więckowska II",52.3734421825,16.6593573322,C
340,"SS I02","Szarych Szeregów I",52.4618071800,16.8850988000,A
1446,"PRNZ04","Przepadek",52.4190104000,16.9233086300,A
645,"ZLOT02","Złotowska",52.4129048700,16.8342091100,A
3944,"KDPOP01","Kórnik/Poprzeczna",52.2510633549,17.0843899155,C
1801,"SZDWO03","Szreniawa/Dworcowa",52.3186180125,16.7921754027,C
643,"KOPC01","Kopciuszka",52.4129460500,16.8377082000,A
495,"POLA01","Połabska",52.4357412600,16.9293871500,A
769,"OPAL01","Opalenicka",52.4049046300,16.8873494100,A
3927,"UNLU01","Unii Lubelskiej",52.3723874700,16.9496976300,A
949,"WILAS01","Wiry/Laskowska",52.3155040386,16.8605176788,B
2601,"BVBYT01","Bytyń/",52.4871080000,16.5074540000,C
1335,"BBBAB02","Babki/",52.3169076300,16.9313970600,B
720,"KWIA01","Os. Kwiatowe",52.3824107071,16.8321241268,A
2420,"SDRAC04","Swarzędz/Os. Raczyńskiego",52.3991740000,17.0633550000,B
929,"LUOKR01","Luboń/Okrzei",52.3464174385,16.8869779900,B
319,"MOCM01","Morasko Cmentarz",52.4846278500,16.9101536300,A
4208,"KOMAL02","Komorniki/Malinowa",52.3469100000,16.8171300000,B
1666,"POLW02","Półwiejska",52.3997682900,16.9283692100,A
4033,"NIES03","Niestachowska",52.4200045927,16.8948290137,A
2759,"DHTEC01","Dachowa/Tęczowa",52.3010234390,17.0876956097,B
4130,"LEZI02","Leśniczówka Zieliniec",52.4219766400,17.0641868100,A
4254,"CMNA94","Cmentarna",52.3856911998,16.8389273636,A
1324,"DASZ01","Daszewicka",52.3179565600,16.9543753500,A
2739,"JNPOZ02","Jankowice/Poznańska",52.4432831400,16.6333000500,C
706,"DBBUK01","Dąbrowa/Szkolna",52.4035842300,16.7401152300,C
311,"SLLAK02","Suchy Las/Łąkowa",52.4805539000,16.8790552200,B
2169,"CZSTA01","Czapury/Stacja Energetyczna",52.3309863000,16.9109873900,B
1137,"MAGA04","Małe Garbary",52.4113480200,16.9369076300,A
2638,"BHDZI01","Błażejewko/Działkowa",52.2041823000,17.1035941700,C
1558,"SPLA02","Spławie",52.3513448400,17.0228163600,A
2203,"OWPAR01","Owińska/Parkowa",52.5112683800,16.9771534100,C
1045,"BUCZ02","Buczka",52.3633451300,16.8791685200,A
1836,"DKSZK01","Dąbrówka/Szkoła",52.3760324300,16.7391836400,C
3245,"KNSZM02","Konarzewo/Szmaragdowa",52.3454973866,16.7182990404,C
66,"BUKO42","Bukowska",52.4100013000,16.8886379300,A
1381,"SWAC02","Św. Antoniego Cmentarz",52.3632276100,16.9371122600,A
1204,"KZOSL01","Koziegłowy/Os. Leśne",52.4524286780,16.9913729934,B
279,"ZOZYT01","Złotkowo/Żytnia",52.5021057200,16.8370466500,B
3999,"OPIA92","Os. Piastowskie",52.3895571818,16.9471740911,A
3546,"OKEI02","Okrzei",52.3611998000,16.8857784000,A
1334,"GLUS01","Głuszyna",52.3217432600,16.9478140500,A
2305,"CEZDR02","Czerwonak/Zdroje",52.4705100000,17.0002495100,B
4105,"KOTW02","Kotwicza",52.3554816320,16.9314425285,A
207,"ZIII41","Żegrze III",52.3832832000,16.9691011900,A
1962,"SWWIA02","Swadzim/Wiadukt",52.4400425900,16.7560702000,B
3129,"KNKSH01","Konarzewo/Ks. Hartlieba",52.3433324830,16.6949378175,C
1602,"BERG02","Bergera",52.3946092400,16.9168133500,A
2605,"PXZEG01","Bytyń/Żeglarska",52.4964290000,16.4969920000,C
1376,"RAKA01","Radomska",52.3543120600,16.9481122600,A
1763,"KOKSM02","Komorniki/Ks.Malinowskiego",52.3395108200,16.8004001400,B
1910,"RKSPO02","Rokietnica/Spokojna",52.5138533200,16.7602602900,B
457,"OLOK02","Os. Łokietka",52.4481196400,16.9428784000,A
1528,"SANT01","Sanocka",52.3611045100,16.9794658700,A
1530,"STRA02","Strzyżowska",52.3546086000,16.9808282800,A
825,"AZAL02","Azaliowa",52.3636927500,16.9074394300,A
3179,"WIAT04","Wiatraczna",52.3900167515,16.9666245596,A
3751,"DHKLO03","Dachowa/Klonowa",52.2973633200,17.0984031800,B
1518,"TORW01","Torowa Wiadukt",52.3687141600,16.9879418500,A
3729,"SOSN03","Sośnicka",52.4061170000,17.0439620000,A
1400,"STMA02","Starołęka Mała",52.3761813600,16.9399001600,A
990,"LUPSZ02","Luboń/Puszkina",52.3528302095,16.8828311147,B
1280,"CZEK01","Czekalskie",52.4047970400,16.9844423300,A
2,"SOB42","Os. Sobieskiego",52.4638000300,16.9166601800,A
406,"OSCH02","Os. Chrobrego",52.4515616700,16.9119593900,A
524,"TRUS01","Truskawiecka",52.4423864600,16.8867968800,A
3882,"KBKAR02","Kobylniki/Karolewska",52.4756383742,16.7238626418,B
1448,"ARPO01","Armii Poznań",52.4213823500,16.9229206700,A
341,"SS I01","Szarych Szeregów I",52.4623720600,16.8860637900,A
806,"RKAP02","Rondo Kaponiera",52.4078763800,16.9104943000,A
1422,"OSPO01","Os. Polan",52.3832711600,16.9610202400,A
26,"LECH41","Lechicka Poznań Plaza",52.4425062700,16.9200857100,A
374,"MAGO02","Mateckiego",52.4623275700,16.8984868900,A
2462,"TPSZK01","Tarnowo Pdg/Szkolna",52.4670886600,16.6629592600,C
2436,"LOSAR01","Łowęcin/Sarbinowska",52.4187050000,17.1329300000,C
361,"HULE02","Hulewiczów",52.4558212400,16.8984131000,A
826,"AZAL01","Azaliowa",52.3640988500,16.9074692300,A
3074,"KOKLB02","Komorniki/Kolumba",52.3478587100,16.7939188200,B
748,"MATE02","Matejki",52.4062685300,16.9009621900,A
1365,"TOMA01","Tomaszowska",52.3438885100,16.9334910300,A
1918,"SOSAN01","Sobota/Sanktuarium",52.5225534100,16.7978945500,B
280,"ZLPAW01","Złotniki/Pawłowicka",52.4976979800,16.8398987000,B
1889,"KSPET02","Krzyszkowo/Pętla",52.5242490756,16.7312266659,B
239,"MORO71","Most Św. Rocha",52.4026611500,16.9423726100,A
2220,"KZLIP01","Koziegłowy/Lipowa",52.4540658000,16.9844318900,B
1321,"BBOSZ02","Babki/Ośrodek Zdrowia",52.3134674000,16.9362469600,B
3553,"BOWE03","Bohaterów Westerplatte",52.3702192000,16.8864906000,A
394,"OSBA01","Os. Batorego",52.4607028300,16.9289892400,A
1833,"KCJON02","Kicin/Jonschera",52.4574087500,17.0166881500,B
2101,"GRCIE02","Góra/Ciepła",52.4755622700,16.6422255900,C
3851,"GTFAB01","Gortatowo/Fabryczna",52.4267668301,17.1053899282,B
1935,"WYZBO01","Wysogotowo/Zbożowa",52.4178391600,16.7746632200,B
2454,"PKSTA02","Paczkowo/Ogrodowa",52.3976960000,17.1589030000,C
2175,"BOSZK01","Bolechowo-Os./Szkoła",52.5409308600,16.9732407100,C
200,"STAR42","Starołęka PKM",52.3685595700,16.9323682800,A
1500,"ORGN01","Orle Gniazdo",52.3912558500,16.9756367900,A
2024,"CYLIP01","Chyby/Lipowa",52.4607333976,16.7620994885,B
2382,"PTKOG01","Potasze/Klub Kogucik",52.5201849800,17.0047475200,C
921,"LURAT02","Luboń/Ratajskiego",52.3400849290,16.8922759552,B
1336,"BBBAB01","Babki/",52.3177123300,16.9304748000,B
2771,"RBPRZ01","Robakowo/Przyjazna",52.2980617355,17.0640244780,B
352,"STRS04","Strzeszyn PKM",52.4613580400,16.8664274800,A
176,"SERA71","Serafitek",52.3971256800,16.9445062800,A
3220,"SKGRA01","Skórzewo/Os. Grafitowe",52.3953300000,16.7628300000,B
502,"PIAT04","Piątkowska",52.4412872773,16.9118297267,A
1181,"PRZA01","Prząśniczki",52.4338518300,17.0086279000,A
2062,"LUOSK01","Luboń/Ośrodek Kultury",52.3283376170,16.8774888767,B
3878,"LUWSC04","Luboń/Wschodnia ",52.3432873797,16.8852661126,B
264,"GOPRO01","Golęczewo/Promienista",52.5371394900,16.8116125400,C
596,"MIED03","Międzyzdrojska",52.4350769500,16.8096441800,A
882,"PUPPM01","Puszczykowo/Puszczykówko PKM",52.2722648700,16.8612408000,C
1656,"SOLN01","Solna",52.4116894100,16.9286558400,A
1115,"SLKA04","Słowiańska",52.4269517000,16.9193400100,A
3867,"MOGI42","Mogileńska",52.4097647200,16.9923322400,A
1430,"AWF02","AWF",52.3997468000,16.9359215600,A
1492,"OSLE02","Os. Lecha",52.3895226900,16.9791244300,A
3334,"LKKOS01","Lusówko/Kościół ",52.4250560000,16.6448090000,C
2225,"KZSZK01","Koziegłowy/Szkoła",52.4465793440,16.9895135404,B
2618,"KDREJ02","Kórnik/Reja",52.2534708300,17.0819317500,C
317,"MOKO01","Morasko Kościół",52.4884915500,16.9089182200,A
1788,"COSZK01","Chomęcice/Szkoła",52.3336658300,16.7407826600,C
2048,"TPNOW01","Tarnowo Pdg/Nowa",52.4623990300,16.6552319600,C
1523,"WIEP01","Wieprawska",52.3690562500,17.0002105900,A
727,"BUDZ01","Budziszyńska",52.3880865200,16.8490618300,A
65,"RJEZ73","Rynek Jeżycki",52.4125350800,16.9047706000,A
1699,"BUDZ42","Budziszyńska",52.3884567400,16.8498179200,A
96,"GLHE71","Głogowska/Hetmańska",52.3905273700,16.8944754200,A
1110,"OPRZ02","Os. Przyjaźni",52.4306230500,16.9298942700,A
1685,"DWZA42","Dworzec Zachodni",52.4011437400,16.9100521100,A
1095,"SOEJ02","Sczanieckiej",52.3943486900,16.8966414900,A
712,"NAWA01","Nagietkowa",52.3888545000,16.8133637500,A
2165,"WRPOD01","Wiórek/Podleśna",52.3072488100,16.9095126200,B
1897,"ZYSWI01","Żydowo/Świetlica",52.5467373500,16.7543667500,B
2356,"GROKR02","Gruszczyn/Okrężna",52.4396300000,17.0747600000,B
338,"LEWI01","Łęgowskiego Wiadukt",52.4634171200,16.8886480300,A
3965,"PKDWR02","Pokrzywnica/Dworska",52.3900798294,16.6775238927,C
2506,"JSRJE02","Swarzędz/Rabowicka",52.4014190000,17.0855180000,B
1038,"JESI02","Jesionowa",52.3699119500,16.8928968800,A
2450,"PKWIO02","Paczkowo/Wiosenna",52.3993740000,17.1587560000,C
2054,"RUNOW01","Rumianek/Nowa I",52.4629465300,16.6376637100,C
466,"UMUL03","Umultowska",52.4433248000,16.9282241200,A
3577,"KOKSW06","Komorniki/Ks.Wawrzyniaka",52.3477710000,16.8023330000,B
1876,"MRLES02","Mrowino/Leszka",52.5138104400,16.7246448500,B
1187,"JAOGR01","Janikowo/Ogrodnicza",52.4436050000,17.0324690000,B
2161,"TUKRO01","Tulce/Krótka",52.3427530000,17.0762860000,B
1210,"GDYN01","Gdyńska",52.4319706154,16.9795817003,A
383,"SZLI02","Szeligowskiego",52.4625870400,16.9176231500,A
569,"STEK02","Strzeszynek",52.4641401500,16.8280997100,A
1733,"TWAR01","Twardogórska",52.3799100000,16.8285400000,A
2072,"LKSZA02","Lusówko/Szantowa",52.4394964500,16.6444631900,C
482,"WIML01","Wilczy Młyn",52.4380629200,16.9530740700,A
326,"SLSPR01","Suchy Las/Sprzeczna",52.4746912800,16.8935577600,B
2130,"SCSAR02","Szczytniki/Sarnia",52.2995050000,17.0112800000,B
2616,"SYJEZ02","Skrzynki/Jeziorna",52.2667960500,17.0696519600,C
1647,"KINZ01","Krzesinki",52.3402166400,17.0125720900,A
82,"WEGO42","Węgorka",52.3923300000,16.8580000000,A
17,"SWLE42","Św. Leonarda",52.4326700000,16.9112600000,A
1406,"WARO02","Warowna",52.3676200000,16.9484000000,A
1743,"PLRYN01","Plewiska/Rynek",52.3686891100,16.8127774200,B
1226,"BROW01","Browarna",52.3992266000,17.0181635400,A
1367,"LYKA01","Łysogórska",52.3438501700,16.9401517500,A
2562,"TUKOS03","Tulce/Kościół",52.3421700000,17.0804270000,B
1989,"LWBOC01","Lusowo/Boczna",52.4216198200,16.7179949900,C
883,"PULIB01","Puszczykowo/Libelta",52.2745733600,16.8581409100,C
4173,"BEOSR01","Biernatki/Ośrodek",52.2217210000,17.1110350000,C
2102,"GRDLII01","Góra/Długa II",52.4864682700,16.6479383900,C
2557,"GATUL01","Garby Wielkie/Tulecka",52.3700540000,17.0739770000,C
1167,"HLDA01","Hlonda",52.4200346500,16.9617654700,A
1952,"BNPRZ01","Baranowo/Przemysława",52.4341041698,16.7962189751,B
221,"FRWO42","Franowo",52.3816632800,17.0014708200,A
797,"OSZW02","Os. Zwycięstwa",52.4354709200,16.9262548700,A
623,"OGDY04","Ogrody",52.4178847900,16.8810942800,A
2882,"RYWI72","Rynek Wildecki",52.3930533961,16.9207137799,A
2648,"JWDOL02","Jeziory Wielkie/Doliwiec Leśny",52.1746370500,17.1401624000,D
2651,"ZMRYN01","Zaniemyśl/Rynek",52.1572143900,17.1596751300,D
1369,"ZAKL02","Zaklikowska",52.3494241300,16.9415749700,A
1841,"KISTA02","Kiekrz/Starzyńska",52.4969236000,16.7690681300,B
1160,"BALA03","Bałtycka",52.4266050100,16.9774817000,A
294,"JENEK01","Jelonek/Nektarowa",52.4832714600,16.8592365100,B
179,"OPIA41","Os. Piastowskie",52.3903419900,16.9471468100,A
2198,"OWLIP01","Owińska/Lipowa",52.5168477500,16.9854892500,C
428,"UMTA02","Umultowo",52.4813508200,16.9438533300,A
667,"MALW01","Malwowa",52.3968425900,16.8034918500,A
1176,"BOBA02","Bogucin Bałtycka",52.4298729300,17.0090791800,A
2525,"ZAOLS01","Zalasewo/Olszynowa",52.3889520000,17.0934040000,B
2546,"ZAOZA02","Zalasewo/Os. Zamoyskiego",52.3883140000,17.0687620000,B
245,"CHKOS02","Chludowo/Kościół",52.5574263100,16.8454754500,C
2472,"SDDJE01","Swarzędz/Działkowa I",52.4077530000,17.0483610000,B
924,"LUPKM01","Luboń/PKM",52.3451906983,16.8921283796,B
3628,"LUPKM04","Luboń/PKM",52.3445502543,16.8916118649,B
2510,"JSRTR01","Jasin/Rabowicka III",52.3999250000,17.0966630000,B
2489,"SDPLD01","Swarzędz/Południowa",52.4017540000,17.0805000000,B
1159,"BALA02","Bałtycka",52.4254561100,16.9778232100,A
609,"WICH02","Wichrowa",52.4315909200,16.8092375000,A
1631,"WYKO01","Wykopy",52.3712425878,16.8635577369,A
2208,"MWKOL02","Miękowo/Kolejowa",52.4978361500,16.9766955800,C
682,"DKPAR02","Dąbrówka/Parkowa",52.3844889000,16.7440964600,C
1014,"FABI02","Fabianowo",52.3659023400,16.8590950900,A
3346,"PMSZK02","Przeźmierowo/Szkoła",52.4249530000,16.7805470000,B
546,"LITA02","Literacka",52.4402178800,16.8716956700,A
3072,"KANKA02","Kamionki/Nad Kople",52.2896360508,17.0003160768,B
1773,"RKAP73","Rondo Kaponiera",52.4076135300,16.9134023000,A
2109,"GRSZK01","Góra/Szkolna",52.4816233900,16.6333034400,C
1059,"OPOL01","Opolska",52.3673960500,16.8956850100,A
351,"STRS03","Strzeszyn PKM",52.4616032400,16.8664355000,A
2364,"CYSZK01","Chyby/Szkolna",52.4585900000,16.7774680000,B
918,"LUZER01","Luboń/Żeromskiego ",52.3402022059,16.8829196600,B
199,"STAR41","Starołęka PKM",52.3684353700,16.9316765000,A
2879,"GWBOR02","Gowarzewo/Borówkowa",52.3698633400,17.1480015700,B
1323,"GLKO02","Głuszyna Kościół",52.3199695300,16.9510315300,A
1261,"CHAR01","Chartowo",52.3957706000,16.9834106800,A
3176,"BRKA02","Brneńska",52.3937471995,16.9630237141,A
3967,"CESZK05","Czerwonak/Szkolna",52.4651325548,16.9811460020,B
2628,"KDBLA02","Kórnik/Bnin Błażejewska",52.2282747800,17.0934814700,C
2092,"CDBRZ01","Ceradz Dolny/Brzoza Huby",52.4250398200,16.5444662500,C
1658,"PUST02","Pusta",52.4102556400,16.9958114800,A
1354,"STRZ02","Strzeleckiego",52.3356666600,16.9244965400,A
195,"STMA44","Starołęka Mała",52.3766108300,16.9407227900,A
2814,"GLHE91","Głogowska/Hetmańska",52.3904007900,16.8943631000,A
4077,"RKBUK02","Rokietnica/Bukowa",52.4984590000,16.7342770000,B
2093,"GBWIE01","Grzebienisko/Wierzbowa",52.4329071300,16.5316423700,C
1911,"RKTOP01","Rokietnica/Topolowa",52.5147635200,16.7652208100,B
3608,"GSKA02","Głuchowska",52.3718935000,16.8736398000,A
445,"MAPO02","Maków Polnych",52.4636005600,16.9477802100,A
1414,"OBII02","Os. Orła Białego II",52.3756031000,16.9606615400,A
2346,"XOSTA01","Kobylnica/Węzeł",52.4456610000,17.0766050000,B
2339,"MAPET01","Markowice/Pętla",52.3124303300,17.2273192200,B
603,"SMOC02","Smochowice",52.4309740800,16.8323331200,A
109,"ROZA42","Różana",52.3969310600,16.9249166900,A
2428,"JSSOL02","Jasin/Sołecka",52.4077050000,17.0983890000,B
1366,"LYKA02","Łysogórska",52.3437239400,16.9400656000,A
1153,"STUD01","Studzienna",52.4194532200,16.9657768000,A
697,"DODWK01","Dopiewo/Dworzec Kolejowy",52.3542555700,16.6787559800,C
366,"OJLY01","Os. Jagiełły",52.4547267200,16.9045831000,A
2811,"KJCH01","Konopackiej",52.3558408900,16.8408888000,A
2018,"BNUNP02","Baranowo/Uniwersytet Przyrodniczy",52.4477762710,16.7848999240,B
3933,"BNSZK02","Baranowo/Wypoczynkowa Szkoła",52.4427290000,16.7914660000,B
4071,"MELIS04","Mielno/Lisia",52.4905023414,17.0692486554,C
2399,"SDCYB02","Swarzędz/Cybińska",52.4167290000,17.0884440000,B
1659,"LOMZ02","Łomżyńska",52.4098753300,16.9851653500,A
2042,"TPCZE01","Tarnowo Pdg/Czereśniowa",52.4666075600,16.6757365800,C
875,"MORZM01","Mosina/Rzeczypospolitej Mosińskiej",52.2510109700,16.8514883300,C
4124,"WARP02","Warpińska",52.4131062200,17.0482781600,A
1887,"KSKOS02","Krzyszkowo/Koszycy",52.5186891100,16.7367092100,B
3009,"UNRU02","Unruga",52.4782284648,16.7650805164,A
4152,"SKWIO02","Skórzewo/Wiosenna",52.3992341694,16.7823321080,B
1955,"PMWIA01","Przeźmierowo/Wiadukt",52.4356255021,16.7863609228,B
2504,"SDKUT03","Swarzędz/Kościuszki",52.4048870000,17.0828710000,B
405,"KURP03","Kurpińskiego",52.4517358000,16.9203743600,A
3326,"JAI02","Jasielska I",52.4451483887,16.8963638003,A
555,"PUSA21","Puszkina",52.4527436201,16.8650482508,A
1871,"MRPAR02","Mrowino/Park",52.5179515200,16.7051639000,B
1371,"DEKA01","Dęblińska",52.3520730700,16.9421608000,A
4126,"GARA02","Garaszewo",52.3501966665,16.9633631381,A
25,"LECH42","Lechicka Poznań Plaza",52.4424734100,16.9198205300,A
2253,"KLSZK01","Kleszczewo/Szkoła II",52.3360707600,17.1658086900,B
1707,"JUNI43","Junikowo",52.3838300000,16.8356600000,A
1134,"MAGA01","Małe Garbary",52.4117352000,16.9388622900,A
722,"JUNI02","Junikowo",52.3836756200,16.8361174900,A
1008,"WOLO02","Wołowska",52.3704000800,16.8428975300,A
3923,"UNLU41","Unii Lubelskiej",52.3721260400,16.9501551200,A
2015,"BNKLO01","Baranowo/Klonowa",52.4417193066,16.7856525597,B
1396,"STAR04","Starołęka PKM",52.3687272200,16.9333491400,A
754,"KRAS01","Kraszewskiego",52.4089167600,16.9017838200,A
4048,"TLLZA01","Trzcielin/Leśne Zacisze",52.3278593600,16.6722997200,C
34,"ARPO41","Armii Poznań",52.4213219800,16.9236569500,A
1548,"SWKI02","Świątniczki",52.3359999800,17.0108321500,A
1759,"GLTEC01","Głuchowo/Tęczowa",52.3449651909,16.7749975990,C
1567,"KOZAK01","Komorniki/Zakładowa Wirenka",52.3352858900,16.8083921300,B
1424,"DRDE01","Droga Dębińska",52.3874419000,16.9305755000,A
760,"GROD02","Grodziska",52.4101224600,16.8842069800,A
1096,"SOEJ01","Sczanieckiej",52.3949794400,16.8969889800,A
381,"SOB30","Os. Sobieskiego",52.4650545300,16.9165060800,A
1772,"RKAP74","Rondo Kaponiera",52.4077451000,16.9136199900,A
1543,"KRWI02","Krzesiny Wiadukt",52.3401477400,16.9993624100,A
3956,"KDINS01","Kórnik/Parkowa Instytut",52.2453229229,17.0959746027,C
474,"OKOS01","Os. Kosmonautów",52.4384400500,16.9408119500,A
371,"WIED01","Wiedeńska",52.4636457600,16.9037033500,A
501,"WLOA01","Włościańska",52.4446345900,16.9139879900,A
3745,"BJPRZ01","Błażejewo/Os. Przylesie",52.2184789500,17.0760273700,C
3860,"CECME02","Czerwonak/Cmentarz",52.4585471500,16.9961692000,B
2675,"SCPKM01","Szczodrzykowo/Kórnik PKM",52.2810362700,17.1047215800,C
2565,"PLL03","Port Lotniczy Ławica",52.4142302500,16.8284017000,A
376,"WIET02","Wietrzna",52.4683871600,16.9005959200,A
2031,"NAKOB02","Napachanie/Kobylnicka",52.4841275465,16.7291606071,B
3833,"MELES02","Mielno/Leśna",52.4933972182,17.0671678390,C
1749,"PLBOI02","Plewiska/Boisko",52.3678400000,16.8013800000,B
1503,"OSZO01","Os. Zodiak",52.3912242300,16.9899634300,A
3311,"ARNI01","Arnikowa",52.4920666774,16.9424369132,A
2222,"KZZON01","Koziegłowy/Żołnierzy Niezłomnych",52.4464440500,16.9837328800,B
1347,"CZDEB01","Czapury/Dębowa",52.3261267526,16.9106343641,B
1050,"SWIE03","Świerczewo",52.3563551700,16.8843606300,A
2672,"DZLES02","Dziećmierowo/Leśna",52.2703047000,17.0978484800,C
867,"MORON01","Mosina/Rondo",52.2433893800,16.8474932600,C
1908,"RKNOB02","Rokietnica/Noblistów",52.5095724700,16.7364642300,B
2480,"SDZUR01","Swarzędz/Armii Poznań/Żurawia",52.3951720000,17.0593690000,B
328,"SLPRO01","Suchy Las/Promienista",52.4783970400,16.8605156100,B
1383,"SWAK02","Św. Antoniego Kościół",52.3641264900,16.9321579200,A
1148,"ZAWA03","Zawady",52.4148157700,16.9571803800,A
3252,"LITRZ02","Lisówki/Trzcielińska",52.3211410000,16.6489890000,C
3698,"DZDB01","Dojazd Biocentrum",52.4328438548,16.8991824949,A
4226,"ZEFDS02","Żerniki/Fabryczna DHL Supply Chain",52.3294024000,17.0356604400,B
690,"DPDOP01","Dopiewiec/",52.3599545700,16.7091852100,C
1084,"GORC21","Górczyn PKM",52.3815782900,16.8809082400,A
1069,"TREB02","Trębacka",52.3876410100,16.8695737300,A
472,"OWW01","Os. Wichrowe Wzgórze",52.4416835800,16.9410835100,A
2119,"PRNA01","Przyjemna",52.3505483600,17.0408873000,A
1143,"ROSR04","Rondo Śródka",52.4093966100,16.9557316000,A
568,"STEK01","Strzeszynek",52.4640133000,16.8285525700,A
709,"DBWIK02","Dąbrowa/Krótka",52.4008751900,16.7446036500,C
3629,"LUPKM03","Luboń/PKM",52.3445773155,16.8917446829,B
1869,"MRTOW01","Mrowino/Towarowa",52.5069663000,16.7064720600,B
2456,"PKPOL01","Paczkowo/Polna",52.3929050000,17.1570600000,C
2057,"RUSZK01","Rumianek/Szkolna",52.4614306700,16.6237900800,C
2430,"JSTUL02","Jasin/Tulipanowa",52.4085150000,17.1047180000,B
952,"WIKOS02","Wiry/Kościół",52.3211361094,16.8514417773,B
186,"TRAU42","Traugutta",52.3846996100,16.9142178600,A
2475,"SDPAD01","Swarzędz/Hala",52.4092700000,17.0689230000,B
2218,"CESZK01","Czerwonak/Szkolna",52.4622358177,16.9827250613,B
2388,"CEUGM04","Czerwonak/Urząd Gminy",52.4716139000,16.9890116300,B
411,"OSZY01","Os. Zygmunta Starego",52.4601935935,16.9096308498,A
1062,"MRAG02","Mrągowska",52.3812679800,16.8648346700,A
373,"MAGO01","Mateckiego",52.4612617400,16.8978341800,A
2145,"BRLAK01","Borówiec/Łąkowa",52.2829330000,17.0451850000,B
3205,"FIALK02","Fiałkowo/",52.3752089907,16.6567304859,C
42,"KMIE42","Kmieca",52.4263972600,16.9387575900,A
8,"POZN42","Poznańska",52.4140944800,16.9162984600,A
1879,"RKLES02","Rokietnica/Leśna",52.5051000000,16.7364000000,B
549,"SAFO01","Safony",52.4443076500,16.8814765500,A
1769,"PLSZK02","Plewiska/Szkoła",52.3618800000,16.8084700000,B
255,"ZIWSP02","Zielątkowo/Wspólna",52.5606240800,16.8127820000,C
983,"LUUNI02","Luboń/Unijna",52.3522620269,16.8655795231,B
1144,"ROSR01","Rondo Śródka",52.4096810100,16.9577102400,A
4234,"SEKOR01","Siekierki Wielkie/Kórnicka",52.3776878116,17.1664714831,C
337,"SLWIA02","Suchy Las/Wiadukt",52.4683773500,16.8841298500,B
1534,"RYMA02","Rymanowska",52.3450729700,16.9846761800,A
1826,"TURY02","Turystyczna",52.4826084600,16.7803631700,A
2760,"DHTEC02","Dachowa/Tęczowa",52.3017909213,17.0864707319,B
419,"KRES03","Kresowa",52.4681807500,16.9459521800,A
3929,"TADE02","Tadeuszak",52.3747800000,16.9538800000,A
2211,"CEELE02","Czerwonak/Elewator",52.4864096400,16.9780642500,B
560,"STST02","Stary Strzeszyn",52.4516384300,16.8486845800,A
478,"WLOD01","Włodarska",52.4363640300,16.9474454600,A
4251,"GROT91","Grotkowska",52.3863851189,16.8429709359,A
379,"SOK01","Os. Sobieskiego Komisariat",52.4660132600,16.9110653900,A
2005,"LWOTO01","Lusowo/Otowska",52.4264903500,16.7142736700,C
1156,"GLOW01","Główna",52.4227869400,16.9764654200,A
4013,"SERB06","Serbska",52.4322406913,16.9451227897,A
2758,"DHKRE01","Dachowa/Kręta",52.3044238900,17.0817273900,B
1464,"KOSC02","Kościelna",52.4135688200,16.9046633600,A
1545,"SIEW01","Siewierska",52.3404211600,17.0054712800,A
2088,"CDOKR01","Ceradz Dolny/Okrężna",52.4259392600,16.5774834100,C
2441,"SBDZI02","Sarbinowo/Dzika",52.4237620000,17.1564120000,C
1761,"KOTOP02","Komorniki/Topolowa",52.3399213800,16.7961222600,B
776,"MARS01","Marszałkowska",52.4014503875,16.8650777659,A
1161,"BALA01","Bałtycka",52.4267849300,16.9785790600,A
4164,"PODJ01","Podjazdowa",52.4789838792,16.7786574747,A
3828,"BHPET02","Błażejewko/Pętla",52.1993144100,17.1076877100,C
37,"PASI41","Pasieka",52.4261525300,16.9311888200,A
3701,"BOKRE02","Bolechowo/Kręta",52.5432544639,16.9947082027,C
150,"MILO42","Miłostowo",52.4101993000,17.0025350800,A
3617,"KOKOM02","Komorniki/Os. Kompozytorów ",52.3210729331,16.8053981795,B
3710,"MALI02","Malinowa",52.3695900000,16.9109900000,A
265,"GOPRO02","Golęczewo/Promienista",52.5372995800,16.8109521500,C
3636,"KRZA01","Krzyżowa",52.3882235013,16.9237095653,A
4010,"DHCIS02","Dachowa/Cisowa",52.2919842055,17.0792690410,B
4108,"ROMI06","Rondo Minikowo",52.3552922500,16.9423631254,A
36,"ZNIW71","Żniwna",52.4243429100,16.9263538700,A
1353,"STWI02","Starołęka Wielka",52.3424213878,16.9182049941,A
3843,"WILC42","Wilczak",52.4271580000,16.9466430000,A
1591,"ROLN02","Rolna",52.3830378700,16.9170866100,A
3312,"RKAP45","Rondo Kaponiera",52.4078000000,16.9130900000,A
53,"WINI41","Os. Winiary",52.4359270900,16.9115017500,A
3932,"BNSPO01","Baranowo/Spokojna",52.4408890000,16.7907710000,B
3626,"LUWSC02","Luboń/Wschodnia ",52.3434226895,16.8826392663,B
2970,"GLMOR01","Głuchowo/Morelowa",52.3451200000,16.7644000000,C
455,"RUBI02","Rubież",52.4489062700,16.9476013600,A
3117,"SKKOS02","Skórzewo/Kościół",52.3909629095,16.7904044951,B
2326,"SRSKR01","Śródka/Skrzyżowanie",52.2998081600,17.1230832800,B
2641,"JWWIE02","Jeziory Wielkie/Wieś",52.1837605700,17.1238948700,D
356,"SUCH01","Sucholeska",52.4625733300,16.8685713400,A
1848,"RKPKM01","Rokietnica/Węzeł Przesiadkowy",52.5117320000,16.7533180000,B
570,"PSAR02","Psarskie",52.4732148200,16.8030259500,A
4232,"PRISK92","Promnice/Klub Iskra",52.5487766990,16.9643076222,C
2558,"GAMTU02","Garby Małe/Tulecka",52.3608470000,17.0751590000,C
3122,"KNDOP02","Konarzewo/Dopiewska",52.3354928413,16.7090017755,C
1939,"PMOLS01","Przeźmierowo/Kasztanowa",52.4188783900,16.7778621400,B
101,"AREN41","Arena",52.3972781800,16.8883695100,A
994,"LUCME02","Luboń/Cmentarz",52.3492496349,16.8499807785,B
4258,"UE93","Uniwersytet Ekonomiczny",52.4061347100,16.9179541200,A
77,"DRZE42","Drzewieckiego",52.3965900200,16.8668666900,A
1663,"STOI03","Stoińskiego",52.4509892700,16.9263428300,A
512,"STKA02","Strzeszyńska",52.4436909800,16.9032034800,A
4125,"WARP01","Warpińska",52.4132503200,17.0481453400,A
2662,"KDZAM02","Kórnik/Zamkowa",52.2378630500,17.0938892900,C
1427,"BIEL02","Bielniki",52.3944250900,16.9335446300,A
1681,"HEWI03","Hetmańska Wiadukt",52.3829946800,16.9281884600,A
1024,"BOJA01","Bojanowska",52.3763846200,16.8722159200,A
1005,"RUDN01","Rudnicze",52.3758228400,16.8437427000,A
1627,"AWF01","AWF",52.3982485100,16.9348113200,A
2749,"RBSZK01","Robakowo/Szkoła",52.3009873219,17.0563948177,B
4,"MT72","Most Teatralny",52.4107374400,16.9126471700,A
450,"BORA02","Boranta",52.4566864500,16.9521145400,A
2259,"NGPAR02","Nagradowice/Park",52.3201232600,17.1497962000,B
1172,"GNIE02","Gnieźnieńska",52.4243702900,16.9908254300,A
1907,"RKNOB01","Rokietnica/Noblistów",52.5089090400,16.7370754200,B
733,"STMI04","Stadion Miejski",52.3949771300,16.8620319900,A
164,"PP72","Politechnika",52.4007011200,16.9487645300,A
2266,"KXOSP01","Komorniki gm.Kleszczewo/OSP",52.3306343600,17.1111042300,B
2381,"BWJOD02","Bolechówko/Jodłowa",52.5189228700,16.9948277800,C
663,"OWCZ02","Owcza",52.4063616300,16.8181857800,A
273,"ZOSOB01","Złotkowo/Sobocka",52.5132079000,16.8354985600,B
634,"KLRA03","Kolorowa",52.4106575600,16.8640171900,A
3377,"LKKOS91","Lusówko/Kościół ",52.4258826300,16.6454118000,C
2277,"KYORL02","Kliny/Orla",52.4783680900,17.0421019700,C
2292,"DEKAS01","Dębogóra/Kasztanowa",52.4909536400,17.0956738100,C
889,"PUKOS01","Puszczykowo/Kościelna",52.2856426400,16.8553204000,C
2163,"CZGRO02","Czapury/Gromadzka",52.3196376800,16.9218183200,B
2137,"KXLAS02","Koninko/Las",52.2997180000,17.0308230000,B
1513,"KRGO01","Krzywoustego",52.3742028400,16.9812218200,A
1304,"KALIS02","Kamionki/Lisia",52.2840542800,17.0061699400,B
344,"BIAL02","Białczańska",52.4570019700,16.8793614500,A
2105,"KHKRE01","Kokoszczyn/Kręta",52.4916065700,16.6530657800,C
1584,"TRAU01","Traugutta",52.3855467800,16.9138131100,A
878,"PUNIW02","Puszczykowo/Niwka Szpital",52.2641841800,16.8701902600,C
3845,"PINA02","Piękna",52.4176452192,16.8761754536,A
184,"HEWI41","Hetmańska Wiadukt",52.3827743900,16.9292470600,A
1051,"KORF01","Korfantego",52.3592496300,16.8867441100,A
1412,"OB I02","Os. Orła Białego I",52.3757688500,16.9665523300,A
2303,"CEGAJ01","Czerwonak/Gajowa",52.4709332500,16.9958905100,B
894,"PUZRO01","Puszczykowo/Źródlana",52.2932731600,16.8621866100,C
1890,"RKBOC02","Rokietnica/Boczna",52.5180689000,16.7454575800,B
1076,"SCIE02","Ściegiennego",52.3904857400,16.8748599000,A
3879,"NAKOB03","Napachanie/Kobylnicka",52.4838937565,16.7285555470,B
2156,"TULES01","Tulce/Leśna",52.3443426400,17.0723302400,B
951,"WIKOS01","Wiry/Kościół",52.3196740061,16.8542752295,B
2108,"GRKRE02","Góra/Kręta",52.4793463200,16.6361721100,C
830,"PINZ04","Piastowska",52.3726471900,16.9176872700,A
1695,"SZOO72","Stare Zoo",52.4081887500,16.9087997900,A
299,"SLKON01","Suchy Las/Konwaliowa",52.4784712780,16.8687966719,B
3242,"KNMŁY01","Konarzewo/Młyńska",52.3394263681,16.7205274325,C
1029,"RAKO03","Rakoniewicka",52.3792719300,16.8792907800,A
967,"LUSTU02","Luboń/Studzienna",52.3429896969,16.8445795103,B
966,"KOWIR02","Komorniki/Wirowska",52.3410772624,16.8396947569,B
834,"HEWI01","Hetmańska Wiadukt",52.3832121000,16.9288388300,A
1316,"DAPIO01","Daszewice/Piotrowska",52.2993912300,16.9580540800,B
1133,"GRLA02","Grochowe Łąki",52.4129500000,16.9388200000,A
3752,"DHKLO04","Dachowa/Klonowa",52.2976754900,17.0984648600,B
465,"UMUL02","Umultowska",52.4427139100,16.9290799200,A
2063,"MT02","Most Teatralny",52.4100495400,16.9129050600,A
1810,"KOJEZ02","Komorniki/Jeziorna",52.3294114256,16.8016645160,B
1933,"WYWIE03","Wysogotowo/Wierzbowa",52.4137947000,16.7773217100,B
1007,"WOLO01","Wołowska",52.3706340200,16.8426570500,A
3368,"LUNIE01","Luboń/Niepodległości",52.3489700312,16.8913019560,B
963,"KOLUB01","Komorniki/Lubońska",52.3390294225,16.8343230038,B
2623,"KDBIE02","Kórnik/Bnin Armii Krajowej",52.2347983900,17.0946002100,C
10,"SOLA42","Sołacz",52.4230151800,16.9036213400,A
1896,"ZYSWI02","Żydowo/Świetlica",52.5461983200,16.7546028600,B
654,"EDWA02","Edwardowo",52.4093054100,16.8474360100,A
4055,"PAWRZ02","Palędzie/Wrzosowa",52.3726579133,16.7266370637,C
268,"GOPKM02","Golęczewo/PKM",52.5349678600,16.8268641000,C
693,"DOOSR02","Dopiewo/Ośrodek Zdrowia",52.3591720100,16.6837441500,C
1287,"WOLK01","Wołkowyska",52.4002819800,16.9682977300,A
3854,"UZKOL01","Uzarzewo/ Przejazd Kolejowy",52.4555779977,17.1205754609,C
2114,"BZZNO02","Brzezno/",52.4913176100,16.6220973800,C
1087,"KRAU72","Krauthofera",52.3869666500,16.8908748900,A
2107,"GRKRE01","Góra/Kręta",52.4793762900,16.6358483600,C
297,"ZLZLO01","Złotniki/Złotnicka",52.4868397800,16.8534343900,B
1996,"ZKZAK01","Zakrzewo/Zakrzewska",52.4057159600,16.7088567200,C
2611,"GDWEZ01","Gądki/Węzeł",52.3118359500,17.0467649200,B
2140,"BRLAS02","Borówiec/Las",52.2927870000,17.0448840000,B
1566,"KOZAK02","Komorniki/Zakładowa Wirenka",52.3354303900,16.8084246300,B
2554,"GAAKA01","Garby Wielkie/Akacjowa",52.3746820000,17.0713590000,C
1731,"GOSP03","Gospodarska",52.3550263100,17.0281817100,A
664,"ZLDZ01","Złotowska Działki",52.4014307700,16.8100223300,A
2422,"BOPAL02","Bolechowo/Pałac",52.5442235600,16.9906102700,C
318,"MOCM02","Morasko Cmentarz",52.4844634100,16.9100089000,A
1951,"WICH03","Wichrowa",52.4324567508,16.8077446321,A
1690,"GORC42","Górczyn PKM",52.3810061700,16.8812332000,A
823,"OSDE01","Os. Dębina",52.3604115200,16.9044811600,A
1438,"LIBE02","Libelta",52.4131215800,16.9202398300,A
1249,"SDRAC01","Swarzędz/Os. Raczyńskiego",52.3991040000,17.0647120000,B
233,"RSTA41","Rondo Starołęka",52.3810631200,16.9433080300,A
541,"GOLE02","Golęcin",52.4303575800,16.8914781200,A
330,"SLBOR02","Suchy Las/Borówkowa",52.4743723400,16.8626849100,B
2027,"KBLIP02","Kobylniki/Lipowa",52.4722206602,16.7491423479,B
1556,"PLON01","Plonowa",52.3549389300,17.0102529700,A
3840,"RZEG43","Rondo Żegrze",52.3768100000,16.9562000000,A
1436,"WIEL01","Wielka",52.4088381400,16.9383157600,A
1829,"KCPET01","Kicin/Pętla",52.4655540800,17.0205516500,B
2087,"CDOKR02","Ceradz Dolny/Okrężna",52.4254497100,16.5769179700,C
1077,"SCIE03","Ściegiennego",52.3909701900,16.8733010700,A
4104,"KOTW01","Kotwicza",52.3553193046,16.9322837096,A
912,"LUPAR01","Luboń/Parkowa",52.3343740680,16.8755999086,B
194,"STMA41","Starołęka Mała",52.3765038800,16.9402608900,A
2006,"LWSWA02","Lusowo/Swadzimska",52.4313566400,16.7057244400,C
1941,"PMCME02","Przeźmierowo/Cmentarz",52.4170043100,16.7881303600,B
1227,"BROW02","Browarna",52.3994165700,17.0184791300,A
548,"HEZJ01","Hezjoda",52.4453060500,16.8744765100,A
661,"LAWI01","Ławica",52.4095376500,16.8229507000,A
493,"POLA02","Połabska",52.4352475700,16.9312698300,A
2146,"BRLAK02","Borówiec/Łąkowa",52.2829140000,17.0452720000,B
212,"OSLE42","Os. Lecha",52.3900634300,16.9778299400,A
1056,"SJNZ02","Sempołowskiej",52.3631961200,16.8919351800,A
3128,"KNKSH02","Konarzewo/Ks. Hartlieba",52.3431159868,16.6952477264,C
336,"SLWIA01","Suchy Las/Wiadukt",52.4694683081,16.8825359634,B
593,"KRZY04","Krzyżowniki",52.4416695900,16.8073361700,A
900,"LELEC01","Łęczyca/Łęczycka",52.3088601620,16.8775183918,B
1472,"OSWI02","Os. Oświecenia",52.3894777000,16.9585817900,A
1944,"PMKOS02","Przeźmierowo/Kościelna",52.4253172234,16.7856673173,B
2313,"BUBUG01","Bugaj/",52.3104351000,17.1818931800,B
1032,"PRCZ01","Przełęcz",52.3772787000,16.8880974300,A
3342,"GVOSI01","Gaj Wielki/",52.4591930000,16.5769490000,C
172,"AWF41","AWF",52.3992400000,16.9343000000,A
1831,"KCSZK02","Kicin/Szkoła",52.4634316700,17.0189726200,B
2556,"GATUL02","Garby Wielkie/Tulecka",52.3703510000,17.0738340000,C
225,"POKA42","Polanka",52.3969400000,16.9622600000,A
2362,"SDKOS03","Swarzędz/Os. Kościuszkowców",52.4210660000,17.0809150000,B
1154,"RWSC01","Rynek Wschodni",52.4208191000,16.9700531800,A
2495,"SOSN01","Sośnicka",52.4057000000,17.0419430000,A
1623,"OPIA01","Os. Piastowskie",52.3909189300,16.9472103000,A
2012,"SALIP02","Sady/Lipowa",52.4435741600,16.7184906900,C
254,"ZIWSP01","Zielątkowo/Wspólna",52.5605640700,16.8126771500,C
403,"KURP02","Kurpińskiego",52.4505247900,16.9195517600,A
1368,"ZAKL01","Zaklikowska",52.3486860100,16.9411966200,A
779,"NIES02","Niestachowska",52.4214491900,16.8943141900,A
1470,"PILS02","Piłsudskiego",52.3925968800,16.9513642700,A
1583,"PALA02","Palacza",52.3897404200,16.8835120300,A
132,"ROSR41","Rondo Śródka",52.4100886700,16.9557905900,A
2223,"KZZON02","Koziegłowy/Żołnierzy Niezłomnych",52.4484847500,16.9842291500,B
2855,"JAWO01","Jawornicka",52.3871280000,16.8587280000,A
3549,"KCZA02","Kotowicza",52.3667558000,16.8844354000,A
153,"BAKA42","Baraniaka",52.4037693100,16.9543871300,A
1927,"WYWAR01","Wysogotowo/Warzywna",52.4012508100,16.7911788600,B
369,"OSMA01","Os. Marysieńki",52.4604586800,16.9039205700,A
786,"UP02","Uniwersytet Przyrodniczy",52.4262198100,16.9039978500,A
75,"GROC41","Grochowska",52.3989629500,16.8758472200,A
1979,"BTBAT01","Batorowo/Batorowska",52.4213294100,16.7539934300,C
2604,"PXZEG02","Bytyń/Żeglarska",52.4966370000,16.4966020000,C
1881,"NASTA02","Napachanie/Starzyńska",52.4897370000,16.7317860000,B
1804,"ROSTW02","Rosnówko/Stawnego",52.2993981384,16.7725330859,C
1573,"DRUZ01","Drużynowa",52.3808882200,16.8976649400,A
1116,"SLKA03","Słowiańska",52.4273333500,16.9192608700,A
2287,"WEJWO02","Wierzonka/Jednostka Wojskowa",52.4852556000,17.0806318700,C
2280,"KYBRZ01","Kliny/Brzozowa",52.4895432400,17.0596249800,C
2781,"RODWO02","Rosnówko/Dworcowa",52.2972400083,16.7672351206,C
1200,"KZSZK04","Koziegłowy/Szkoła",52.4466153423,16.9905465699,B
3202,"DOWDW01","Dopiewo/Więckowska II",52.3732438629,16.6596524835,C
3101,"MGPOZ01","M. Goślina/Poznańska",52.5736495671,17.0110448254,C
4011,"SCSZK02","Szczodrzykowo/Szkoła",52.2844967703,17.1051685647,C
3574,"KBKIE01","Kobylniki/Kierska",52.4736777181,16.7543074951,B
3740,"KXMAG02","Koninko/Magazynowa",52.3154498900,17.0312323200,B
3327,"JAI01","Jasielska I",52.4455623805,16.8969245877,A
3862,"FONA01","Folwarczna",52.3886700000,17.0093500000,A
507,"TROJ02","Trójpole",52.4366036600,16.9118021400,A
3963,"PKLES02","Pokrzywnica/Leśna",52.3972160529,16.6719602913,C
1022,"OSIA02","Ostatnia",52.3729373400,16.8664989900,A
139,"ZAWA42","Zawady",52.4136466034,16.9581832333,A
582,"ADMI01","Admiralska",52.4751780000,16.7768486100,A
3213,"WKSZK02","Więckowice/Szkoła",52.3967880000,16.6380710000,C
1796,"RSROS04","Rosnowo/",52.3248815700,16.7808619500,C
935,"LUWPL01","Luboń/Wojska Polskiego",52.3426829913,16.8749653334,B
1894,"RTSOB02","Rostworowo/Sobocka",52.5370198100,16.7587170600,B
444,"BIPRK02","Biedrusko/Park",52.5451933400,16.9467181900,B
772,"OGNI01","Ognik",52.4072669000,16.8680441400,A
526,"SZKA02","Szczawnicka",52.4387345300,16.8899214300,A
881,"PUPPM02","Puszczykowo/Puszczykówko PKM",52.2721533000,16.8620024000,C
2446,"PKSAR01","Paczkowo/1 (Sarbinowska)",52.4052040000,17.1577180000,C
3727,"SARN01","Sarnia",52.4089180000,17.0445280000,A
2464,"PKSZK01","Paczkowo/Szkoła",52.4020809983,17.1595797010,C
1451,"ZERO02","Żeromskiego",52.4165557600,16.8918269900,A
436,"IMBI01","Imbirowa",52.4999651700,16.9400833200,A
978,"LUZAB02","Luboń/Żabikowo",52.3450460000,16.8542620000,B
2913,"SKSZA01","Skórzewo/Szarotkowa",52.3933996000,16.7950822200,B
2340,"MAAUT01","Markowice/Autostrada",52.3120691700,17.2321514000,B
2659,"BELAS01","Biernatki/Laskowa",52.2271642900,17.1065144500,C
571,"PSAR01","Psarskie",52.4736903600,16.8033006500,A
2343,"WZCME01","Wierzenica/Cmentarz",52.4664980000,17.0735610000,C
2488,"SDPLD02","Swarzędz/Południowa",52.4017700000,17.0808320000,B
2419,"SDRAC03","Swarzędz/Os. Raczyńskiego",52.3999340000,17.0647660000,B
1023,"BOJA02","Bojanowska",52.3760578900,16.8722833700,A
2328,"SRJED01","Śródka/I",52.2983486300,17.1266879500,B
2603,"BVBYT02","Bytyń/",52.4873340000,16.5044950000,C
1923,"ZOLIP02","Złotkowo/Lipowa",52.5071870500,16.8349642400,B
2341,"WZKOS01","Wierzenica/Kościół",52.4626480000,17.0699130000,C
105,"TRAU44","Traugutta",52.3853237900,16.9138239700,A
2085,"CKKOL02","Ceradz Kościelny/Kościół",52.4373567100,16.5925915600,C
1380,"SWAC01","Św. Antoniego Cmentarz",52.3629986400,16.9379452500,A
3592,"PNSTA02","Promno/Stacja",52.4720407732,17.2143302611,C
1978,"BTBAT02","Batorowo/Batorowska",52.4211329400,16.7546509600,C
2026,"WLKE01","Wielkie",52.4653484530,16.7592217637,B
1704,"GROT71","Grotkowska",52.3865628400,16.8439037400,A
670,"SKOSM02","Skórzewo/Os. Makowe",52.3886978000,16.7827904100,B
764,"MARC01","Marcelińska",52.4043790100,16.8745328200,A
489,"ROSO04","Rondo Solidarności",52.4341511600,16.9403435800,A
532,"LUTY01","Lutycka",52.4385654600,16.8943024500,A
23,"ALSO42","Aleje Solidarności",52.4359820600,16.9199740600,A
1239,"BORO02","Borówki",52.3896073900,17.0315419500,A
2511,"JSRCZ02","Jasin/Rabowicka II",52.3983900000,17.1064040000,B
79,"STMI42","Stadion Miejski",52.3953542600,16.8623584000,A
1740,"PLPOD01","Plewiska/Podgórna",52.3661878100,16.8249950100,B
1124,"WILC01","Wilczak",52.4269576000,16.9479935100,A
2582,"MGOKR01","M. Goślina/Okrężna",52.5833105100,17.0165526600,C
4151,"SKWIO01","Skórzewo/Wiosenna",52.3999098575,16.7815351995,B
987,"LUOLU02","Luboń/Os. Lubonianka",52.3490692456,16.8810454495,B
1755,"GLSPO02","Głuchowo/Spokojna",52.3488527775,16.7725478434,C
4206,"KOTUL02","Komorniki/Tulipanowa",52.3480100000,16.8142300000,B
252,"CHNAT02","Chludowo/Nad Torem",52.5604177800,16.8196280500,C
389,"OPIE02","Opieńskiego",52.4599041300,16.9217350800,A
934,"LUSTP02","Luboń/Straż Pożarna",52.3462640978,16.8790089057,B
908,"LUPOD02","Luboń/Podgórna",52.3247731075,16.8793778448,B
2309,"KXTAN02","Tanibórz/Zachód",52.3459495300,17.1134171200,B
2406,"SDGRU01","Swarzędz/Cieszkowskiego",52.4133620000,17.0852100000,B
2010,"LWKOS01","Lusowo/Kościół",52.4329532300,16.6980826400,C
977,"LUSZN02","Luboń/Szkolna",52.3427371160,16.8676160668,B
2207,"OWOGR01","Owińska/Gospodarstwo Ogrodnicze",52.5034255600,16.9758111100,C
3115,"RAKO04","Rakoniewicka",52.3779401929,16.8827278117,A
349,"MORS01","Morszyńska",52.4579201500,16.8727657600,A
1946,"PMZAC01","Przeźmierowo/Zacisze",52.4262350000,16.7886620000,B
2410,"JADZ01","Jaryszki/Działki",52.3340673026,17.0187335159,B
3120,"KNKOS01","Konarzewo/Kościelna",52.3349070000,16.7112930000,C
210,"OCZ72","Os. Czecha",52.3861128400,16.9756493300,A
87,"MODW72","Most Dworcowy",52.4038694800,16.9111204500,A
2294,"KFDWR01","Karłowice/Dwór",52.4940860000,17.1003210000,C
2763,"SCTRZ02","Szczodrzykowo/Poznańska",52.2927239400,17.1080833300,C
1253,"ZAGIM02","Zalasewo/Planetarna Szkoła",52.3928840000,17.0689170000,B
2893,"TUKRA03","Tulce/Krańcowa",52.3495336800,17.1001830600,B
226,"HCP42","HCP",52.3815242000,16.9113663400,A
3173,"POGL98","Poznań Główny",52.4037115359,16.9177622672,A
2263,"KXBYL02","Komorniki gm.Kleszczewo/Bylin",52.3263893400,17.1247081400,B
3768,"WIDWR02","Wierzenica/Dwór",52.4605174800,17.0693962300,C
915,"LUTAR01","Luboń/Targowa",52.3388219268,16.8745521216,B
557,"ZOWY02","Żołnierzy Wyklętych",52.4406722100,16.8677999100,A
3125,"KNSEZ01","Konarzewo/Sezamkowa",52.3376130196,16.7040137190,C
3935,"WLOD42","Włodarska",52.4360035765,16.9470117579,A
602,"LUPO01","Łupowska",52.4353853900,16.8300010700,A
3118,"TRCZI02","Trzek/Czereśniowa",52.3588272477,17.1519943134,B
38,"PASI42","Pasieka",52.4263859700,16.9318731300,A
680,"DKLAS02","Dąbrówka/Las",52.3868636600,16.7458264800,C
1358,"TARN02","Tarnobrzeska",52.3452016400,16.9183718600,A
1357,"OZAR02","Ożarowska",52.3325719800,16.9323576500,A
4121,"WSKA01","Wieruszowska",52.3819690837,16.8443876620,A
544,"GOKA01","Golęcińska",52.4322404800,16.8843525500,A
590,"SLUP02","Słupska",52.4486133400,16.8041124700,A
378,"SOK02","Os. Sobieskiego Komisariat",52.4661330000,16.9102135000,A
3960,"DPPOR01","Dopiewiec/Poranek",52.3741050000,16.7174770000,C
343,"SZSZ02","Szarych Szeregów",52.4591456900,16.8803907400,A
1296,"BRSZK01","Borówiec/Szkoła",52.2773756200,17.0473616100,B
303,"SLKOS03","Suchy Las/Kościół",52.4736033600,16.8782179000,B
4008,"RBPRZ02","Robakowo/Przyjazna",52.2977998681,17.0646295381,B
220,"SZWA41","Szwajcarska",52.3824818500,16.9982370300,A
464,"UMUL05","Umultowska",52.4424558100,16.9295289900,A
409,"WOKI02","Wojciechowskiego",52.4506105500,16.9151571400,A
2514,"JSEKO02","Jasin/Rabowicka Pętla",52.3976630000,17.1104510000,B
4117,"LAUD02","Laudańska",52.3944860431,16.8374220921,A
4198,"DWZA94","Dworzec Zachodni",52.4014143523,16.9085683052,A
1037,"GORE02","Górecka",52.3734426200,16.8937284300,A
2330,"SRDWA01","Śródka/II",52.2976996200,17.1319911100,B
54,"LUSZ41","Lutycka Szpital",52.4396789800,16.9101567100,A
2919,"CEZDR01","Czerwonak/Zdroje",52.4705421100,17.0008158400,B
1617,"ZYNA01","Żywiczna",52.3906406100,17.0345301200,A
1149,"ZAWA01","Zawady",52.4148562300,16.9585338300,A
2046,"TPCEN01","Tarnowo Pdg/Centrum",52.4642509200,16.6649831400,C
2192,"BOPRZ02","Bolechowo/Przejazd",52.5330406000,16.9796078500,C
1830,"KCSZK01","Kicin/Szkoła",52.4629347900,17.0185013200,B
396,"OSBP01","Os. Batorego Pływalnia",52.4570192800,16.9276707800,A
1217,"PUST01","Pusta",52.4099213600,16.9948577000,A
1521,"LUGA01","Ługańska",52.3713299200,16.9945271000,A
1370,"DEKA02","Dęblińska",52.3518709300,16.9422543300,A
586,"REKR02","Rekreacyjna",52.4646400000,16.8003498300,A
52,"WINI42","Os. Winiary",52.4356506500,16.9113141800,A
675,"DBWIL01","Dąbrowa/Leśna",52.3974179800,16.7560146400,C
947,"WINOW02","Wiry/Nowa",52.3179410803,16.8708774883,B
1394,"STAR30","Starołęka PKM",52.3662288200,16.9300926300,A
752,"SZYL01","Szylinga",52.4083315800,16.8987510400,A
1774,"RKAP71","Rondo Kaponiera",52.4084075000,16.9124949600,A
1553,"OSNZ01","Ostrowska",52.3518593400,17.0028203800,A
1230,"PIWN03","Piwna",52.3921488500,17.0145561600,A
2386,"PTWIE01","Potasze/Wierzbowa",52.5236765300,17.0251506100,C
4219,"MWSLO01","Miękowo/Słowackiego",52.4893155666,16.9828431218,C
2205,"OWPAL01","Owińska/Pałac",52.5136024200,16.9745204500,C
313,"SLKRA02","Suchy Las/Krańcowa",52.4813876500,16.8864448500,B
1017,"KOTO01","Kotowo",52.3581464200,16.8543241700,A
1213,"TERM01","Termalna",52.4091242700,16.9715842800,A
270,"GOOBO01","Golęczewo/Obornicka",52.5354452900,16.8346253700,C
1949,"BNRUB02","Baranowo/Os. Rubinowe",52.4290330000,16.7995590000,B
22,"KLIN41","Klin",52.4187683300,16.9140675600,A
2971,"GLMOR02","Głuchowo/Morelowa",52.3449110690,16.7636785478,C
3676,"KUWI02","Kurlandzka Wiadukt",52.3817347512,16.9788585797,A
203,"Z I41","Żegrze I",52.3789806400,16.9611208400,A
152,"BAKA41","Baraniaka",52.4039501500,16.9541778000,A
1601,"BERG01","Bergera",52.3940352200,16.9158069100,A
442,"BIJDW01","Biedrusko/Jednostka Wojskowa",52.5407511300,16.9446203400,B
716,"GERB01","Gerberowa",52.3853229400,16.8260002700,A
3607,"GSKA01","Głuchowska",52.3716286000,16.8747210000,A
59,"OGDY42","Ogrody",52.4163628200,16.8829024900,A
3877,"KLWEZ01","Kleszczewo/Węzeł",52.3347800777,17.1675045125,B
1180,"JANZ01","Janikowska ",52.4321270000,17.0027201500,A
1067,"KAZA01","Kacza Zajezdnia",52.3821649100,16.8610899900,A
1519,"TORW02","Torowa Wiadukt",52.3687452000,16.9882906500,A
529,"STLI02","Strzeszyńska Lisner",52.4489689900,16.8945655300,A
1741,"PLZCH02","Plewiska/Zachodnia",52.3693986600,16.8210504700,B
253,"CHNAT01","Chludowo/Nad Torem",52.5602843600,16.8210855900,C
1860,"PBKOL02","Przybroda/Kolejowa",52.5205479100,16.6630105800,B
1837,"KISAN02","Kiekrz/Sanktuarium",52.4872155000,16.7767125000,B
724,"CMNA01","Cmentarna",52.3849693600,16.8390119400,A
391,"OSBA03","Os. Batorego",52.4598635700,16.9274543900,A
1250,"SDKUP04","Swarzędz/Kupiecka",52.3976485142,17.0708424723,B
514,"OBOR01","Obornicka",52.4455276400,16.9085929200,A
607,"LEKA02","Leśnowolska",52.4316133300,16.8223032900,A
277,"ZOCED01","Złotkowo/Cedrowa",52.5080470900,16.8357042100,B
1745,"PLSKR01","Plewiska/Skryta",52.3716588700,16.8169676000,B
307,"SLNWR01","Suchy Las/Nowy Rynek",52.4752666000,16.8807941000,B
1228,"PIWN01","Piwna",52.3926936100,17.0148841400,A
1992,"LWPRZ02","Lusowo/Przylesie",52.4147259600,16.7183040000,C
1880,"RKLES01","Rokietnica/Leśna",52.5043100000,16.7357400000,B
1277,"TORM02","Tor Regatowy Malta",52.4026305232,16.9890560560,A
1738,"PLSLO01","Plewiska/Słoneczna",52.3662569200,16.8307937300,B
4224,"ZEFPP02","Żerniki/Fabryczna Panattoni Park",52.3315860300,17.0284735100,B
2669,"DZPOL01","Dziećmierowo/Polna",52.2593354100,17.0962408000,C
1108,"OPL02","Os. Pod Lipami",52.4303104300,16.9374326200,A
2184,"BOKAS02","Bolechowo-Os./Kasztanowa",52.5504969100,16.9734919000,C
1711,"GWAR42","Gwarna",52.4078930200,16.9213767300,A
2033,"NAKOK02","Napachanie/Kokoszczyńska",52.4837319011,16.7188007976,B
1809,"WABUK02","Walerianowo/Bukowa",52.3145562640,16.7701128455,C
300,"SLSZK02","Suchy Las/Szkoła",52.4753299200,16.8735462100,B
4111,"GRZIE02","Gruszczyn/Zielińska",52.4276851898,17.0649984772,B
4225,"ZEFDS01","Żerniki/Fabryczna DHL Supply Chain",52.3297001800,17.0346864400,B
2534,"TPGRU01","Tarnowo Pdg/27 Grudnia",52.4723900100,16.6468882600,C
979,"LUZAB01","Luboń/Żabikowo",52.3451270000,16.8543960000,B
1973,"TPMAR02","Tarnowo Pdg/Marianowska",52.4543602000,16.7016685800,C
1688,"MT45","Most Teatralny",52.4115747100,16.9147002100,A
710,"MANZ02","Malwowa I",52.3935661100,16.8076452700,A
74,"OSTR41","Ostroroga",52.4006241700,16.8823444000,A
2179,"BOWOJ02","Bolechowo-Os./Wojska Polskiego",52.5414489600,16.9725434600,C
2172,"PRPLN04","Promnice/Północna",52.5419438000,16.9661314700,C
1182,"PRZA02","Prząśniczki",52.4338584900,17.0081972900,A
1258,"DYMK01","Dymka",52.3936058900,16.9924657300,A
1721,"POGL73","Poznań Główny",52.4036499300,16.9163628400,A
2753,"GDSPE01","Gądki/Spedycyjna",52.3098570600,17.0537812300,B
1559,"OLIW02","Oliwkowa",52.3596445700,17.0199592400,A
778,"NIES01","Niestachowska",52.4213493000,16.8948642800,A
566,"INTP01","Instytut Technologiczno-Przyrodniczy",52.4557426400,16.8550097000,A
2331,"SRTRZ01","Śródka/III",52.2968016700,17.1392281200,B
1791,"COSRD02","Chomęcice/Środkowa",52.3315679200,16.7465379500,C
835,"RSTA02","Rondo Starołęka",52.3809092300,16.9438591400,A
1660,"TERM02","Termalna",52.4094559300,16.9730751400,A
2283,"MELAK01","Mielno/Łąkowa",52.4921246300,17.0669669800,C
193,"DEEC42","Dębiec PKM",52.3730591500,16.9038313800,A
4239,"KAMI92","Kamiennogórska",52.3910169750,16.8419821792,A
999,"SYNZ01","Sycowska II",52.3615147000,16.8365471900,A
88,"DWZA71","Dworzec Zachodni",52.4017177600,16.9088064600,A
61,"ZERO71","Żeromskiego",52.4157411000,16.8903614400,A
2567,"MGLES01","M. Goślina/Leśna",52.5646904900,16.9895134800,C
3700,"BOKRE01","Bolechowo/Kręta",52.5434071204,16.9941769305,C
1915,"BYPAW01","Bytkowo/Pawłowicka",52.5171383200,16.7752571300,B
2448,"PKDWO02","Paczkowo/Szkoła (Dworska)",52.4022850000,17.1588230000,C
368,"WRTV01","Wieża RTV",52.4581533000,16.9044244300,A
178,"WIOS72","Wioślarska",52.3930340200,16.9488577900,A
1535,"RYMA01","Rymanowska",52.3453880500,16.9843959600,A
1517,"LOPA01","Łopawska",52.3686399200,16.9934813700,A
4245,"TPTUR01","Tarnowo Pdg/Turyńska",52.4777710000,16.6619510000,C
4230,"BIWA01","Biwakowa",52.4746580571,16.7556651909,A
1409,"OBOD02","Obodrzycka",52.3716606900,16.9580660400,A
899,"LELEC02","Łęczyca/Łęczycka",52.3062510845,16.8731353955,B
3637,"ZEKA02","Żelazka",52.3911611495,16.9282696523,A
573,"CHKA02","Chojnicka",52.4688093000,16.8012110300,A
2116,"KMSTO01","Kaźmierz/Storczykowa",52.5100143100,16.5881489700,C
1243,"SDSZU01","Swarzędz/Szumana",52.3990720028,17.0470532801,B
4157,"SKOGR01","Skórzewo/Ogrodowa",52.3945040635,16.7879399820,B
2918,"DEKAS04","Dębogóra/Kasztanowa",52.4914314000,17.0959654100,C
1109,"OPRZ01","Os. Przyjaźni",52.4306482000,16.9315862800,A
903,"LULAS02","Luboń/Lasek",52.3216430000,16.8861590000,B
2853,"GALC01","Gałczyńskiego",52.4063869284,16.8515303227,A
836,"RSTA03","Rondo Starołęka",52.3809460900,16.9421135800,A
1777,"KOWI03","Kowalewicka Wiadukt",52.3624975300,16.8525441700,A
1628,"GLHE02","Głogowska/Hetmańska",52.3902373200,16.8933198200,A
198,"BYST42","Bystra",52.3714098300,16.9349624900,A
1114,"SLKA02","Słowiańska",52.4265125500,16.9199547800,A
3165,"RKKOL01","Rokietnica/Kolejowa",52.5134942748,16.7421177477,B
293,"JENEK02","Jelonek/Nektarowa",52.4826130400,16.8602369300,B
1806,"RODKU02","Rosnówko/Dom Kultury",52.3032700000,16.7633500000,C
4186,"CEELE03","Czerwonak/Elewator",52.4860068134,16.9779583683,B
1174,"GNNZ02","Gnieźnieńska I",52.4279685700,17.0020174400,A
2460,"SEPET01","Siekierki Wielkie/Kościół",52.3809290000,17.1629720000,C
263,"ZILAS01","Zielątkowo/Las",52.5463516400,16.8000753000,C
2214,"CEKRE01","Czerwonak/Kręta",52.4742795500,16.9793813300,B
219,"SZWA42","Szwajcarska",52.3825556800,16.9982315400,A
1467,"OJAG01","Os. Jagiellońskie",52.3936171100,16.9562191900,A
1705,"GROT72","Grotkowska",52.3865437000,16.8441191000,A
1765,"KOKSW02","Komorniki/Ks.Wawrzyniaka",52.3470874600,16.8032274800,B
4068,"ZRPLZ01","Zborowo/Plażowa",52.3758040000,16.6276110000,C
1572,"DRUZ02","Drużynowa",52.3803335100,16.8974728700,A
2173,"TUZDB01","Tulce/Zadęby",52.3451816900,17.0915260500,B
3095,"LUZSK04","Luboń/Zespół Szkół",52.3481672883,16.8976329507,B
3124,"KNSEZ02","Konarzewo/Sezamkowa",52.3374416047,16.7044416884,C
2549,"ZAHSZ01","Zalasewo/Heweliusza Szkoła",52.3850790000,17.0685930000,B
2257,"BLSTB02","Bylin/Stacja benzynowa",52.3276985100,17.1605748200,B
3721,"ZLPKM02","Złotniki/PKM",52.4951772031,16.8367580017,B
1288,"KOWO02","Kopiec Wolności",52.3989782000,16.9737915300,A
2792,"PUNAD01","Puszczykowo/Nadwarciańska",52.2656695500,16.8728698200,C
897,"LEWPN01","Łęczyca/WPN",52.3025313034,16.8679554908,B
182,"ORZE42","Os. Rzeczypospolitej",52.3854184000,16.9450054200,A
2990,"RKAP01","Rondo Kaponiera",52.4080713515,16.9116673935,A
2090,"CDPAR01","Ceradz Dolny/Parkowa",52.4211889100,16.5714042800,C
2854,"BRZE03","Brzechwy",52.4074138036,16.8458929335,A
945,"LURUT01","Luboń/Rutkiewicz",52.3262530906,16.8876863530,B
145,"KRAN41","Krańcowa",52.4093202300,16.9812458100,A
2541,"ZAGLE02","Zalasewo/Glebowa",52.3895950000,17.0753630000,B
2095,"GBPET01","Grzebienisko/Pętla",52.4334174800,16.5257196800,C
2302,"CEZUR02","Czerwonak/Żurawia",52.4674431700,16.9874688400,B
3236,"ROMI04","Rondo Minikowo",52.3558960000,16.9435650000,A
637,"LESK03","Leśnych Skrzatów",52.4115931000,16.8503329200,A
1479,"LI02","Os. Lecha I",52.3879597900,16.9684768100,A
1197,"KZPLY02","Koziegłowy/Pływalnia",52.4493331273,16.9920665989,B
1909,"RKSPO01","Rokietnica/Spokojna",52.5139066200,16.7602349300,B
2670,"DZSLO02","Dziećmierowo/Słoneczna",52.2655506800,17.0977719700,C
4244,"TPSEZ01","Tarnowo Pdg/Sezamkowa",52.4733310000,16.6517840000,C
1590,"IPNZ02","IPN",52.3795993700,16.9145704300,A
543,"GOKA02","Golęcińska",52.4314840500,16.8846367300,A
2396,"SDCZW02","Swarzędz/Os. Czwartaków",52.4166860000,17.0829700000,B
2620,"KDNIE01","Kórnik/Pl. Niepodległości",52.2478430300,17.0882067500,C
358,"SYPU01","Synów Pułku",52.4605713300,16.8730878900,A
76,"GROC42","Grochowska",52.3988983700,16.8760071400,A
1928,"WYWAR02","Wysogotowo/Warzywna",52.4022543700,16.7904894300,B
2962,"OSIA03","Ostatnia",52.3725136784,16.8668044008,A
1488,"KUWI01","Kurlandzka Wiadukt",52.3817257383,16.9784453679,A
810,"POGL02","Poznań Główny",52.4027315500,16.9122439500,A
1995,"ZKZAK02","Zakrzewo/Zakrzewska",52.4057497300,16.7099908500,C
1284,"KATO01","Katowicka",52.4019205900,16.9631121000,A
1547,"TAKA01","Tarnowska",52.3419793800,17.0102496800,A
1408,"OBOD01","Obodrzycka",52.3715211900,16.9574481800,A
157,"RRAT76","Rondo Rataje",52.3961500000,16.9487900000,A
898,"LEWPN02","Łęczyca/WPN",52.3032175001,16.8686343387,B
2120,"PRNA02","Przyjemna",52.3505610900,17.0412050800,A
1870,"MRKOP02","Mrowino/Kopernika",52.5125451600,16.7024902400,B
1998,"ZKINS02","Zakrzewo/Instytut",52.4062473300,16.7013485100,C
1893,"RTJOD01","Rostworowo/Jodłowa",52.5248661000,16.7502724200,B
68,"RONJ42","Rondo Nowaka-Jeziorańskiego",52.4027709300,16.8900297700,A
31,"WIKA42","Wielkopolska",52.4155123100,16.9182845700,A
3071,"SCSZC01","Szczytniki/Szczelinka",52.2936820244,17.0041530433,B
1131,"GABA01","Garbary PKM",52.4174898500,16.9403268300,A
3749,"DHOKE01","Dachowa/Okrężna",52.3038408100,17.0980993300,B
345,"BIAL01","Białczańska",52.4573127500,16.8791045800,A
4012,"SCSZK03","Szczodrzykowo/Szkoła",52.2859329386,17.1017595676,C
874,"MORZM02","Mosina/Rzeczypospolitej Mosińskiej",52.2512105800,16.8515332600,C
4051,"PAWRZ01","Palędzie/Wrzosowa",52.3729373671,16.7260762763,C
292,"ZLZLO03","Złotniki/Złotnicka",52.4866893800,16.8557331300,B
653,"BRZE01","Brzechwy",52.4081713900,16.8455874000,A
954,"WIWIR01","Wiry/Wirowska",52.3266772230,16.8435317233,B
1419,"OAK02","Os. Armii Krajowej",52.3817815200,16.9518798600,A
2089,"CDPAR02","Ceradz Dolny/Parkowa",52.4208287700,16.5712571500,C
2068,"JNPRZ02","Jankowice/Przemysłowa",52.4544493200,16.6403263800,C
359,"LEGO01","Łęgowskiego",52.4608925200,16.8931590400,A
2034,"NAKOK01","Napachanie/Kokoszczyńska",52.4841994816,16.7197305240,B
2084,"CKJAN02","Ceradz Kościelny/Jankowicka",52.4402820000,16.6005520000,C
1302,"BRBOR01","Borówiec/Borówkowa",52.2827159500,17.0121129800,B
3858,"KCWIC02","Kicin/Wichrowa",52.4641340100,17.0006850200,B
2344,"WZCME02","Wierzenica/Cmentarz",52.4663980000,17.0733950000,C
2138,"KXLAS01","Koninko/Las",52.2999380000,17.0303780000,B
1301,"BRBOR02","Borówiec/Borówkowa",52.2821272100,17.0141312700,B
427,"DUNZ02","Dziurawcowa",52.4791813300,16.9451608900,A
2367,"TPGIM02","Tarnowo Pdg/Poznańska Szkoła",52.4613648400,16.6511556000,C
3656,"JOPIA01","Jerzykowo/pl. Piastowski",52.4693963489,17.1714152668,C
1125,"WILC02","Wilczak",52.4272747700,16.9475104800,A
936,"LUWPL04","Luboń/Wojska Polskiego",52.3430438212,16.8745668792,B
2650,"LKLKK01","Łękno/",52.1640370300,17.1536636500,D
2312,"BUBUG02","Bugaj/",52.3102168400,17.1816930800,B
2583,"MGOKR02","M. Goślina/Okrężna",52.5843184400,17.0176234700,C
3836,"MWOGR01","Miękowo/Ogrodowa",52.4967773301,16.9839942117,C
885,"PUPSK02","Puszczykowo/Piaskowa",52.2768788200,16.8538291700,C
1712,"PAWI01","Park Wilsona",52.3977946000,16.9006677700,A
2351,"XOLES01","Kobylnica/Leśna",52.4546510000,17.0992000000,B
2677,"SCOGR01","Szczodrzykowo/Ogrodowa",52.2830122500,17.1066191200,C
324,"SLPRZ01","Suchy Las/Os. Przylesie",52.4734913200,16.8977641800,B
1090,"ARCI01","Arciszewskiego",52.3923167400,16.8853747500,A
2353,"UZSKR02","Uzarzewo/Skrzyżowanie",52.4604250000,17.1115410000,C
408,"WOKI01","Wojciechowskiego",52.4506791100,16.9142883900,A
1798,"WABRZ02","Walerianowo/Brzozowa",52.3199718459,16.7744072964,C
646,"MALE01","Malechowska",52.4120356800,16.8306214400,A
2851,"SWRZ02","Świerzawska",52.4052429252,16.8624509196,A
2445,"SBDOB01","Sarbinowo/II (Dobrepole)",52.4148870000,17.1550420000,C
2083,"CKJAN01","Ceradz Kościelny/Jankowicka",52.4407338900,16.6024359800,C
3674,"SDWPR01","Swarzędz/Węzeł Przesiadkowy",52.4043421144,17.0733955307,B
2973,"BRKUR01","Borówiec/Kurkowa",52.2812629632,17.0204601509,B
1020,"KMNZ02","Komornicka",52.3705838100,16.8640463000,A
2637,"BJMDW02","Błażejewo/Mikołajczyka II",52.2111895600,17.1010103000,C
2535,"SDKUP01","Swarzędz/Kupiecka",52.3975620000,17.0725090000,B
3180,"WIAT03","Wiatraczna",52.3903771950,16.9676723466,A
2036,"TPKAR02","Tarnowo Pdg/Karolewo III",52.4747929644,16.7019329026,C
787,"WIWI02","Witosa Wiadukt",52.4341228400,16.9053066600,A
4163,"PODJ02","Podjazdowa",52.4785791945,16.7789673835,A
2529,"XRCZA01","Kruszewnia/Czarnoleska",52.3793910000,17.1034750000,C
1504,"OSZO02","Os. Zodiak",52.3912530400,16.9883900100,A
1089,"ARCI02","Arciszewskiego",52.3922059900,16.8859797200,A
1947,"PMFOL02","Przeźmierowo/Folwarczna",52.4269010000,16.7918180000,B
4002,"ZLJAS02","Złotniki/Jaskółcza",52.4808453806,16.8505415660,B
1544,"SIEW02","Siewierska",52.3405578000,17.0054267300,A
796,"ALSO02","Aleje Solidarności",52.4357524600,16.9200577600,A
1686,"DWZA41","Dworzec Zachodni",52.4011157600,16.9102571900,A
714,"ZONK01","Żonkilowa",52.3864662256,16.8189603803,A
1980,"BTWID02","Batorowo/Widok",52.4218247400,16.7458164300,C
136,"ROSR45","Rondo Śródka",52.4098738000,16.9577923900,A
4006,"ZLOGP01","Złotniki/Os. Grzybowe PKM",52.4846310900,16.8445795103,B
2429,"JSSOL01","Jasin/Sołecka",52.4076980000,17.0986540000,B
648,"OBA02","Os. Bajkowe",52.4099615400,16.8355428800,A
2217,"CEPKM01","Czerwonak/PKM",52.4689475100,16.9800592000,B
1117,"SLKA01","Słowiańska",52.4278416800,16.9204757300,A
2349,"XOSZK01","Kobylnica/Szkoła",52.4480180000,17.0818760000,B
4049,"LISOW02","Lisówki/Sowia",52.3208834000,16.6597853000,C
1541,"KRSZ02","Krzesiny Szkoła",52.3413112800,16.9919595400,A
2209,"MWKOL01","Miękowo/Kolejowa",52.4988289900,16.9763707800,C
3200,"DOWJE01","Dopiewo/Więckowska I",52.3679249590,16.6665147505,C
266,"GOSZK02","Golęczewo/Szkoła",52.5350047900,16.8195953300,C
577,"KIDW02","Kiekrz PKM",52.4750720300,16.7897244800,A
657,"PLL02","Port Lotniczy Ławica",52.4132082400,16.8273624800,A
1696,"SZOO71","Stare Zoo",52.4082919200,16.9086570300,A
3866,"KLCH02","Klenowska Centrum Handlowe",52.3783458026,16.9810131839,A
553,"TOLT01","Tołstoja",52.4507937900,16.8698184400,A
1240,"ZNAS02","Żywiczna Nastawnia",52.3950411600,17.0377655000,A
2642,"JWWIE01","Jeziory Wielkie/Wieś",52.1837436700,17.1228305600,D
2613,"RBWEZ02","Robakowo/Węzeł",52.2957912900,17.0517110900,B
3249,"TLPET01","Trzcielin/Pętla",52.3222640000,16.6794880000,C
204,"Z I42","Żegrze I",52.3789265600,16.9614602200,A
1221,"SWIA02","Światopełka",52.4076820700,17.0244985000,A
687,"PAPAL02","Palędzie/Leśna",52.3695529000,16.7358967300,C
2276,"KYORL01","Kliny/Orla",52.4781827200,17.0414852700,C
2856,"JAWO02","Jawornicka",52.3878030000,16.8580220000,A
3008,"RETM02","Retmańska",52.4784083265,16.7699357547,A
3859,"KCWIC01","Kicin/Wichrowa",52.4640530500,17.0012458000,B
385,"SZYM08","Szymanowskiego",52.4602038200,16.9158013600,A
1088,"KRAU71","Krauthofera",52.3875876200,16.8913676500,A
435,"RADO01","Radojewo",52.4976583300,16.9461884000,A
2543,"ZARAD02","Zalasewo/Ukośna",52.3847890000,17.0740570000,B
421,"KRES01","Kresowa",52.4679525200,16.9476334300,A
2319,"KECME02","Krerowo/Cmentarz",52.2899014900,17.1849432000,B
3136,"CEPKM03","Czerwonak/PKM",52.4687487106,16.9796259730,B
475,"OKOS02","Os. Kosmonautów",52.4383750700,16.9404025000,A
615,"PLOT02","Przelot",52.4260131500,16.8598158400,A
618,"BUZA01","Bużańska",52.4236316000,16.8668036700,A
1290,"KORN02","Kórnicka",52.3994053000,16.9528862800,A
1849,"RKPKM02","Rokietnica/Węzeł Przesiadkowy",52.5107780000,16.7548410000,B
348,"KOSO01","Kosowska",52.4559956000,16.8774373600,A
2383,"PTKOG02","Potasze/Klub Kogucik",52.5201399900,17.0046766400,C
1389,"DZIE01","Dziedzicka",52.3535767900,16.9222460000,A
965,"KOWIR01","Komorniki/Wirowska",52.3405100000,16.8380600000,B
1526,"URSZ02","Urszulanek",52.3653086800,16.9816911300,A
621,"OGDY02","Ogrody",52.4169288400,16.8822457700,A
930,"LUJPA02","Luboń/Jana Pawła II",52.3456056290,16.8828606298,B
973,"LUKLO01","Luboń/Klonowa",52.3423041167,16.8567397426,B
2517,"RADEB01","Rabowice/Dębowa",52.3866570000,17.1167360000,C
2126,"KXDRU01","Koninko/Drukarska",52.3194150000,17.0243310000,B
678,"DBLES02","Dąbrowa/Poprzeczna",52.3926187700,16.7505366800,C
1569,"KOCEN01","Komorniki/Centrum",52.3354671700,16.8072777200,B
2585,"PDPAR01","Przebędowo/Park",52.5859934800,17.0148795000,C
459,"KULY02","Kupały",52.4511591700,16.9357661600,A
913,"LUTAR03","Luboń/Targowa",52.3396970107,16.8770904225,B
2248,"KLPAR01","Kleszczewo/Park",52.3333434700,17.1718193900,B
2061,"LUOSK02","Luboń/Ośrodek Kultury",52.3266700000,16.8784900000,B
1975,"TPDZI02","Tarnowo Pdg/Działkowa",52.4572864100,16.6910767000,C
713,"NAWA02","Nagietkowa",52.3892622900,16.8130086800,A
2357,"GROKR01","Gruszczyn/Okrężna",52.4397720000,17.0749180000,B
3247,"GSWSP01","Gołuski/Wspólna",52.3601618161,16.7519905576,C
1233,"KOBY01","Kobylepole",52.3908454600,17.0182072300,A
542,"GOLE01","Golęcin",52.4306289600,16.8910834100,A
2338,"MAJED01","Markowice/I",52.3010446100,17.2181288500,B
4229,"BIWA02","Biwakowa",52.4750807653,16.7562554934,A
155,"RRAT73","Rondo Rataje",52.3964800000,16.9508600000,A
93,"RYLA72","Rynek Łazarski",52.3944540100,16.8991462700,A
1974,"TPDZI01","Tarnowo Pdg/Działkowa",52.4576954700,16.6905986000,C
3221,"SKGRA02","Skórzewo/Os. Grafitowe",52.3950000000,16.7637000000,B
1546,"TAKA02","Tarnowska",52.3419996500,17.0099534200,A
2588,"PVOKR01","Pólko/Okrężna",52.5242041571,16.4611780134,C
1977,"BTSKO02","Batorowo/Skośna",52.4204711500,16.7683790100,C
2433,"LOSZK02","Łowęcin/Szkolna",52.4132350000,17.1159730000,C
3208,"WKBLO01","Więckowice/Bloki",52.3897464170,16.6405414389,C
390,"OPIE01","Opieńskiego",52.4600337200,16.9232562400,A
2424,"SDCEH01","Swarzędz/Wrzesińska",52.4093660000,17.0865880000,B
1120,"WYLO01","Wyłom",52.4332335800,16.9206322300,A
997,"LANG01","Lange",52.3558960200,16.8335377800,A
463,"SARM02","Sarmacka",52.4456930300,16.9279319400,A
1917,"SOSAN02","Sobota/Sanktuarium",52.5223346500,16.7988325000,B
2476,"SDPIA01","Swarzędz/Piaski",52.4078630000,17.0752130000,B
1355,"STRZ01","Strzeleckiego",52.3357390300,16.9242662300,A
1509,"SSZP02","Szwajcarska Szpital",52.3888784900,16.9921746500,A
744,"RONJ01","Rondo Nowaka-Jeziorańskiego",52.4025250300,16.8879965400,A
461,"LUCK01","Łużycka",52.4516680900,16.9333852300,A
2011,"SALIP01","Sady/Lipowa",52.4436480300,16.7184648700,C
1505,"RUSA01","Os. Rusa",52.3874996300,16.9912605800,A
2190,"BOOGR01","Bolechowo-Os./Ogrodowa",52.5332147700,16.9771902900,C
3621,"KOJEZ05","Komorniki/Jeziorna",52.3293302141,16.8037453324,B
1447,"PRNZ02","Przepadek",52.4198483700,16.9216925100,A
1993,"LWPRZ01","Lusowo/Przylesie",52.4147719400,16.7183908600,C
3227,"KOTRU01","Komorniki/Truskawkowa",52.3277149766,16.8228268619,B
2158,"DAPET02","Daszewice/Pętla",52.2958732400,16.9623613000,B
1840,"KIZIE01","Kiekrz/Zielona",52.4925451800,16.7725451600,B
2099,"TPOKR02","Tarnowo Pdg/Okrężna",52.4700622700,16.6502600700,C
2881,"SEMAL01","Siekierki Wielkie/Malinowa",52.3751333900,17.1598673400,C
2112,"GRPET01","Góra/Pętla",52.4855115500,16.6295712900,C
2159,"BBBBK01","Babki/Babicka",52.3134098808,16.9378177959,B
594,"MIED01","Międzyzdrojska",52.4364244100,16.8089974300,A
141,"SWMI42","Św. Michała",52.4091737200,16.9619320100,A
471,"OWW02","Os. Wichrowe Wzgórze",52.4412357000,16.9407797000,A
1073,"TACZ01","Taczanowskiego",52.3916647700,16.8688547400,A
1190,"KZZDR01","Koziegłowy/Zakłady Drobiarskie",52.4412425800,16.9981860100,B
